pid,pref,cid,city,citykana,lat,lng,url,phrase
1,北海道,1100,札幌市,さっぽろし,43.06208877,141.3543886,https://www.city.sapporo.jp/,市民の力みなぎる、文化と誇りあふれる街
1,北海道,1101,札幌市 中央区,さっぽろし ちゅうおうく,43.0553865,141.3409671,https://www.city.sapporo.jp/chuo/,市電のふるさと中央区
1,北海道,1102,札幌市 北区,さっぽろし きたく,43.09079296,141.3408807,https://www.city.sapporo.jp/kitaku/,みてきて北区
1,北海道,1103,札幌市 東区,さっぽろし ひがしく,43.07611111,141.3636111,https://www.city.sapporo.jp/higashi/,ようこそひがしく
1,北海道,1104,札幌市 白石区,さっぽろし しろいしく,43.04756872,141.40522,https://www.city.sapporo.jp/shiroishi/,おもしろいしWEB
1,北海道,1105,札幌市 豊平区,さっぽろし とよひらく,43.03134414,141.3800612,https://www.city.sapporo.jp/toyohira/,夢ひらく　花ひらく　とよひらく
1,北海道,1106,札幌市 南区,さっぽろし みなみく,42.99000828,141.3533998,https://www.city.sapporo.jp/minami/,ゆたかな緑きよらかな水　みなみ区
1,北海道,1107,札幌市 西区,さっぽろし にしく,43.0744547,141.3008974,https://www.city.sapporo.jp/nishi/,Hello! 西区（ハロー！　にしく）
1,北海道,1108,札幌市 厚別区,さっぽろし あつべつく,43.03639318,141.4747615,https://www.city.sapporo.jp/atsubetsu/,あつべつ・く
1,北海道,1109,札幌市 手稲区,さっぽろし ていねく,43.12187423,141.2457843,https://www.city.sapporo.jp/teine/,ていねっていいね
1,北海道,1110,札幌市 清田区,さっぽろし きよたく,42.99951523,141.4437927,https://www.city.sapporo.jp/kiyota/,きよたFan倶楽部
1,北海道,1202,函館市,はこだてし,41.76864057,140.7290679,https://www.city.hakodate.hokkaido.jp/,人が輝き　まちが輝く　交流都市　はこだて
1,北海道,1203,小樽市,おたるし,43.19070647,140.9944857,https://www.city.otaru.lg.jp/,歴史と文化が息づく　健康、にぎわい、協働のまち
1,北海道,1204,旭川市,あさひかわし,43.77083333,142.365,https://www.city.asahikawa.hokkaido.jp/,あ、雪の匂い　人が輝く 北の文化のかおる まち
1,北海道,1205,室蘭市,むろらんし,42.31520812,140.9736731,https://www.city.muroran.lg.jp/,ふれあいむろらん あったかランド　海と科学技術のサークル都市むろらん
1,北海道,1206,釧路市,くしろし,42.98492315,144.3817102,https://www.city.kushiro.lg.jp/,自然とまちの魅力が賑わいを創り活力みなぎる環境・交流都市「釧路」
1,北海道,1207,帯広市,おびひろし,42.92405501,143.1962056,https://www.city.obihiro.hokkaido.jp/,人と環境にやさしい 活力ある 田園都市 おびひろ
1,北海道,1208,北見市,きたみし,43.80392712,143.8957877,https://www.city.kitami.lg.jp/,ひと・まち・自然きらめく　オホーツク中核都市　- 安心な活力都市　北見 -
1,北海道,1209,夕張市,ゆうばりし,43.0568559,141.9740889,https://www.city.yubari.lg.jp/,文化・スポーツ交流のマチ　共に創ろう温もりのまちゆうばり
1,北海道,1210,岩見沢市,いわみざわし,43.19611111,141.7758333,https://www.city.iwamizawa.hokkaido.jp/,人・地域が輝く緑と活力に満ちた文化都市
1,北海道,1211,網走市,あばしりし,44.02063505,144.2734742,https://www.city.abashiri.hokkaido.jp/,豊かなオホーツクに活気みなぎるまち　網走
1,北海道,1212,留萌市,るもいし,43.94100709,141.6369314,https://www.e-rumoi.jp/,誇りと満足を目指す　みなとまち留萌
1,北海道,1213,苫小牧市,とまこまいし,42.63416667,141.6055556,https://www.city.tomakomai.hokkaido.jp/,日本を代表する港湾と緑豊かなまち　人間環境都市の創造をめざして
1,北海道,1214,稚内市,わっかないし,45.41563748,141.6730675,https://www.city.wakkanai.hokkaido.jp/,人が行き交う環境都市わっかない
1,北海道,1215,美唄市,びばいし,43.3330171,141.8540435,http://www.city.bibai.hokkaido.jp/,人かがやき　夢ひろがる　美しき唄のまち
1,北海道,1216,芦別市,あしべつし,43.51821332,142.1894862,https://www.city.ashibetsu.hokkaido.jp/,星の降る里　人が輝き 豊かな自然と共生する 安全・安心なまち あしべつ
1,北海道,1217,江別市,えべつし,43.10365105,141.5360696,https://www.city.ebetsu.hokkaido.jp/,人が輝く共生のまち
1,北海道,1218,赤平市,あかびらし,43.55798822,142.0441993,https://www.city.akabira.hokkaido.jp/,虹の映えるまち・赤平　あふれる笑顔 輝く未来を創造するまち
1,北海道,1219,紋別市,もんべつし,44.35638889,143.3541667,https://mombetsu.jp/,流氷と大地の恵みを活かし、人が輝き躍動するまち　もんべつ
1,北海道,1220,士別市,しべつし,44.17857528,142.4001608,https://www.city.shibetsu.lg.jp/www/index.html,サフォークランド士別　天塩の流れとともに 人と大地が躍動する すこやかなまち
1,北海道,1221,名寄市,なよろし,44.3559089,142.4631835,http://www.city.nayoro.lg.jp/,星・雪・きらめき　緑の里なよろ
1,北海道,1222,三笠市,みかさし,43.24565996,141.8753755,https://www.city.mikasa.hokkaido.jp/,クリーン・グリーン 三笠　豊かな新時代の創造　希望滾（たぎ）る人間都市
1,北海道,1223,根室市,ねむろし,43.33007352,145.5828718,https://www.city.nemuro.hokkaido.jp/,協働を合言葉に市民とともに創る活気にあふれる住みよいまち根室
1,北海道,1224,千歳市,ちとせし,42.82100926,141.6510058,http://www.city.chitose.lg.jp,ひと・まち・きらり　地球の笑顔が見えるまち 千歳　みんなで生き生き 活力創造都市 ちとせ
1,北海道,1225,滝川市,たきかわし,43.55772933,141.9103899,https://www.city.takikawa.hokkaido.jp/,風がみつけた街…たきかわ　みんなでつくり みんなで育む 健康文化のまち
1,北海道,1226,砂川市,すながわし,43.49478639,141.9034778,https://www.city.sunagawa.hokkaido.jp/,安らぎと活力にみちた快適環境都市
1,北海道,1227,歌志内市,うたしないし,43.52166667,142.0352778,https://www.city.utashinai.hokkaido.jp/,ロマン＆ふれあいの里　いきいきと、みんなで創る心ふれあうまち
1,北海道,1228,深川市,ふかがわし,43.72319472,142.0535134,https://www.city.fukagawa.lg.jp/,市民とともに創る住みよいまち深川
1,北海道,1229,富良野市,ふらのし,43.34200922,142.3831468,http://www.city.furano.hokkaido.jp/,へそとスキーとワインのまち　協働・感動・生き活きふらの
1,北海道,1230,登別市,のぼりべつし,42.41277778,141.1066667,https://www.city.noboribetsu.lg.jp/,人が輝き　まちがときめく　ふれあい交流都市　のぼりべつ
1,北海道,1231,恵庭市,えにわし,42.88258231,141.5777691,https://www.city.eniwa.hokkaido.jp/,水・緑・花　人がふれあう生活都市えにわ
1,北海道,1233,伊達市,だてし,42.47194444,140.8647222,https://www.city.date.hokkaido.jp/,北の湘南 伊達　助けあい 学びあい 創造するまち
1,北海道,1234,北広島市,きたひろしまし,42.98566933,141.5635545,https://www.city.kitahiroshima.hokkaido.jp/,自然と創造の調和した豊かな都市
1,北海道,1235,石狩市,いしかりし,43.17138889,141.3155556,http://www.city.ishikari.hokkaido.jp/,あい風と人間（ひと）が輝く活力のまち・石狩
1,北海道,1236,北斗市,ほくとし,41.82416667,140.6530556,https://www.city.hokuto.hokkaido.jp/index.html,～あなたが主役　可能性を未来に～
1,北海道,1303,当別町,とうべつちょう,43.22381951,141.5171281,https://www.town.tobetsu.hokkaido.jp/,札幌至近の自然あふれる我がまち　自然を身近に感じ活力に満ちた美しいまち当別
1,北海道,1304,新篠津村,しんしのつむら,43.22541251,141.6492815,https://www.vill.shinshinotsu.hokkaido.jp/,耕せ人々の力みんなでつくる新しのつ
1,北海道,1331,松前町,まつまえちょう,41.42996802,140.1103613,https://www.town.matsumae.hokkaido.jp/,みんなで築こう　協働のまち
1,北海道,1332,福島町,ふくしまちょう,41.48374263,140.2512881,http://www.town.fukushima.hokkaido.jp/,海峡と横綱の里　豊かな自然 たくましい産業 快適で心なごむ町 ふくしま
1,北海道,1333,知内町,しりうちちょう,41.59833333,140.4188889,https://www.town.shiriuchi.hokkaido.jp/,笑顔かがやく躍動の舞台
1,北海道,1334,木古内町,きこないちょう,41.6783268,140.4376294,https://www.town.kikonai.hokkaido.jp/,北の大地の始発駅　恵まれた自然とたゆまぬ活力を活かして 一人ひとりが心を育み、支え合う北の大地の福祉都市『きこない』
1,北海道,1337,七飯町,ななえちょう,41.89571953,140.6944054,https://www.town.nanae.hokkaido.jp/,私たちが主役　健やかな未来を育むあたたかいまちづくり
1,北海道,1343,鹿部町,しかべちょう,42.03861111,140.8158333,http://www.town.shikabe.lg.jp/,きらめく海・駒ヶ岳（やま）・うるおいの湯郷（ユートピア）
1,北海道,1345,森町,もりまち,42.10496108,140.5764167,https://www.town.hokkaido-mori.lg.jp/,みんなで創ろう海と緑の理想郷 森町 ～こころふれあう はつらつとした爽やかなまち～
1,北海道,1346,八雲町,やくもちょう,42.25589383,140.2651921,https://www.town.yakumo.lg.jp/,太平洋と日本海　二つの海を持つまち
1,北海道,1347,長万部町,おしゃまんべちょう,42.51340337,140.3801967,http://www.town.oshamambe.lg.jp/index.php,ふれあい交流家族・おしゃまんべ
1,北海道,1361,江差町,えさしちょう,41.86928745,140.1275909,https://www.hokkaido-esashi.jp/,自然・歴史・文化が輝く北の交流拠点－えさし
1,北海道,1362,上ノ国町,かみのくにちょう,41.80111111,140.1213889,http://www.town.kaminokuni.lg.jp/,天の川が流れる街　輝くまち わたしたちの上ノ国
1,北海道,1363,厚沢部町,あっさぶちょう,41.92094925,140.2253619,https://www.town.assabu.lg.jp/index.php,ポテト夢タウン・あっさぶ
1,北海道,1364,乙部町,おとべちょう,41.96854529,140.1353881,https://www.town.otobe.lg.jp/,明るく元気で豊かな町・乙部
1,北海道,1367,奥尻町,おくしりちょう,42.17228824,139.5141374,https://www.town.okushiri.lg.jp/,心かよいあう幸の島　みんなのおくしり
1,北海道,1370,今金町,いまかねちょう,42.42937171,140.0086423,https://www.town.imakane.lg.jp/,いいまち 今金 夢のまち　みんなで漕ぎだそう 今金しあわせ丸
1,北海道,1371,せたな町,せたなちょう,42.41694444,139.8833333,https://www.town.setana.lg.jp/,みんなの笑顔と力で創ろう、未来の「せたな」。
1,北海道,1391,島牧村,しままきむら,42.70049649,140.0615316,https://www.vill.shimamaki.lg.jp/,豊かな自然と人の温もりを育む村
1,北海道,1392,寿都町,すっつちょう,42.7910538,140.2288275,http://www.town.suttu.lg.jp/,～地域の宝を、地域の輝きにつなげる安らぎのまち～
1,北海道,1393,黒松内町,くろまつないちょう,42.66777778,140.3077778,http://www.kuromatsunai.com/,自然にやさしく・人にやすらぎの田舎　みんなで歩むブナ北限の里づくり
1,北海道,1394,蘭越町,らんこしちょう,42.80923992,140.5283803,https://www.town.rankoshi.hokkaido.jp/,心一つにみんなで創る 共生と希望のまち 蘭越
1,北海道,1395,ニセコ町,にせこちょう,42.80480026,140.6875294,https://www.town.niseko.lg.jp/,小さいながらも世界に誇れる暮らしやすさを実感できる“環境のまち”「小さな世界都市ニセコ」
1,北海道,1396,真狩村,まっかりむら,42.7630045,140.8036719,https://www.vill.makkari.lg.jp/,風を感じる村　小さいけれど日本一輝いている村
1,北海道,1397,留寿都村,るすつむら,42.73730784,140.8756242,https://www.vill.rusutsu.lg.jp/,童謡「赤い靴」ゆかりの地　留寿都村（るすつむら）
1,北海道,1398,喜茂別町,きもべつちょう,42.79543379,140.9345372,http://www.town.kimobetsu.hokkaido.jp/,人と自然がきらめく町きもべつ
1,北海道,1399,京極町,きょうごくちょう,42.8582269,140.8841146,http://www.town-kyogoku.jp/,名水の郷 きょうごく　美しい水と農（みのり）の幸せなまち
1,北海道,1400,倶知安町,くっちゃんちょう,42.90171229,140.7590211,https://www.town.kutchan.hokkaido.jp/,ふれあい豊かに質の高い暮らしと文化があるまち
1,北海道,1401,共和町,きょうわちょう,42.98040776,140.6114265,https://www.town.kyowa.hokkaido.jp/,豊かな大地で、健やかに たくましく歩むまち きょうわ　かかしのふるさと共和町
1,北海道,1402,岩内町,いわないちょう,42.97878475,140.5091811,https://www.town.iwanai.hokkaido.jp/,北海道・後志・西積丹にある岩内町の公式HP
1,北海道,1403,泊村,とまりむら,43.06300163,140.4989034,http://www.vill.tomari.hokkaido.jp/,エネルギーのふるさと とまり　日本海にこにこ元気むら
1,北海道,1404,神恵内村,かもえないむら,43.14380532,140.4309293,https://www.vill.kamoenai.hokkaido.jp/,小さくてもキラリと光る村づくり
1,北海道,1405,積丹町,しゃこたんちょう,43.29874919,140.5979824,http://www.town.shakotan.hokkaido.jp/,躍動する大地、積丹21
1,北海道,1406,古平町,ふるびらちょう,43.26533414,140.6389515,http://www.town.furubira.lg.jp/,もっといきいき　もっとほのぼの
1,北海道,1407,仁木町,にきちょう,43.15166667,140.7661111,http://www.town.niki.hokkaido.jp/,果実とやすらぎの里　魅力ある、住みよい、心豊かなふれあいを大切にするまち
1,北海道,1408,余市町,よいちちょう,43.19531756,140.7835239,https://www.town.yoichi.hokkaido.jp/,青い海と山海の幸に恵まれた、毛利衛宇宙飛行士誕生のまち　未来につなげるいきいき“よいち”
1,北海道,1409,赤井川村,あかいがわむら,43.08349202,140.8136322,https://www.akaigawa.com/,水清く 味覚豊かな カルデラの里　人と自然が育む美しい村～やすらぎと潤いのふるさとをめざして～
1,北海道,1423,南幌町,なんぽろちょう,43.06371295,141.6502959,http://www.town.nanporo.hokkaido.jp/,緑豊かな田園文化のまち　「住む」人に「人生の実り」をプラス。
1,北海道,1424,奈井江町,ないえちょう,43.42527778,141.8827778,http://www.town.naie.hokkaido.jp/,おもいやり明日へ　健康と福祉のまち奈井江町
1,北海道,1425,上砂川町,かみすながわちょう,43.482118,141.9835294,http://town.kamisunagawa.hokkaido.jp/,小さくても健康的で元気な明るい町　住民の総意により学び、働き、憩う快適な人間環境の創造
1,北海道,1427,由仁町,ゆにちょう,42.99960678,141.79028,http://www.town.yuni.lg.jp/,風薫る健康のまち　ゆにガーデンの由仁町へようこそ
1,北海道,1428,長沼町,ながぬまちょう,43.01036818,141.6954173,https://www.maoi-net.jp/,緑豊かな田園文化都市
1,北海道,1429,栗山町,くりやまちょう,43.05630081,141.7840938,http://www.town.kuriyama.hokkaido.jp/,ふるさとは栗山です。～人・自然・文化・産業のつながりで創るまち～
1,北海道,1430,月形町,つきがたちょう,43.33839288,141.6695448,http://www.town.tsukigata.hokkaido.jp/,まんまるはーと 月形町　愛と誇りに満ちたやすらぎと希望あふれる花の里つきがた
1,北海道,1431,浦臼町,うらうすちょう,43.43036951,141.8187355,https://www.town.urausu.hokkaido.jp/,みどりかがやく　夢大地　うらうす　－豊かなふるさとの創造をめざして－
1,北海道,1432,新十津川町,しんとつかわちょう,43.54847601,141.8770965,https://www.town.shintotsukawa.lg.jp/,しんとつかわで心呼吸。人・夢・自然
1,北海道,1433,妹背牛町,もせうしちょう,43.70017033,141.9615052,https://www.town.moseushi.hokkaido.jp/,人輝き、笑顔あふれるまち・もせうし
1,北海道,1434,秩父別町,ちっぷべつちょう,43.76701307,141.9578543,https://www.town.chippubetsu.hokkaido.jp/,鐘のなるまち ちっぷべつ　快適で融和な活力あるまち・ちっぷべつ
1,北海道,1436,雨竜町,うりゅうちょう,43.64396502,141.8890417,https://www.town.uryu.hokkaido.jp/,産業・自然・ひとが輝き、ともに支え合うまちづくり
1,北海道,1437,北竜町,ほくりゅうちょう,43.73138889,141.8791667,http://www.town.hokuryu.hokkaido.jp/,日本一を誇るひまわりの里　太陽を味方につけたまち北竜　ふるさと北竜未来プラン
1,北海道,1438,沼田町,ぬまたちょう,43.80670325,141.9336905,https://www.town.numata.hokkaido.jp/,祭りばやしとほたるの里
1,北海道,1452,鷹栖町,たかすちょう,43.84333333,142.3544444,https://www.town.takasu.hokkaido.jp/,みんな　笑顔で　あったかす
1,北海道,1453,東神楽町,ひがしかぐらちょう,43.69638494,142.4515003,https://www.town.higashikagura.lg.jp/,すてきな笑顔と花のまち　花と夢で心をむすぶ町ひがしかぐら
1,北海道,1454,当麻町,とうまちょう,43.82813767,142.5083928,http://town.tohma.hokkaido.jp/,明るく活力あるまちづくり
1,北海道,1455,比布町,ぴっぷちょう,43.87500414,142.4776752,http://www.town.pippu.hokkaido.jp/,スキーといちごのまち　笑顔あふれるまち ぴっぷを目指して
1,北海道,1456,愛別町,あいべつちょう,43.90667341,142.5778203,http://www.town.aibetsu.hokkaido.jp/,美しい田園ときのこの里 愛 いっぱいのまち 愛別町　心豊かで笑顔がつながるまちをめざして
1,北海道,1457,上川町,かみかわちょう,43.84712409,142.7704637,https://www.town.hokkaido-kamikawa.lg.jp/,～自然と調和した未来～小さくても「夢・希望・誇り」に満ちた上川をめざして
1,北海道,1458,東川町,ひがしかわちょう,43.6988984,142.5101593,https://town.higashikawa.hokkaido.jp/,写真の町　人と自然がおりなす輝きの大地　ひがしかわ
1,北海道,1459,美瑛町,びえいちょう,43.5883298,142.4670597,https://town.biei.hokkaido.jp/,丘のまち びえい
1,北海道,1460,上富良野町,かみふらのちょう,43.45561409,142.4671231,https://www.town.kamifurano.hokkaido.jp/,四季彩のまち・かみふらの－風土に映える暮しのデザイン－
1,北海道,1461,中富良野町,なかふらのちょう,43.40583333,142.4252778,https://www.town.nakafurano.lg.jp/,ともに創るしあわせ大地クリーン・グリーンなかふらの
1,北海道,1462,南富良野町,みなみふらのちょう,43.16416667,142.5683333,https://www.town.minamifurano.hokkaido.jp/,瑞々しい自然　誇れる大地、人のびのび　みなみふらの
1,北海道,1463,占冠村,しむかっぷむら,42.97987952,142.3985363,http://www.vill.shimukappu.lg.jp/,自然体感占冠　しむかっぷむら
1,北海道,1464,和寒町,わっさむちょう,44.02312874,142.4134008,https://www.town.wassamu.hokkaido.jp/,自然の恵み野わっさむ町　ふれあい夢かがやく わっさむ2世紀へ躍動
1,北海道,1465,剣淵町,けんぶちちょう,44.09576224,142.3613267,https://www.town.kembuchi.hokkaido.jp/wp-content/cache/all//index.html,人・夢・大地　やさしさ奏でる　絵本の里けんぶち
1,北海道,1468,下川町,しもかわちょう,44.3025664,142.6352023,https://www.town.shimokawa.hokkaido.jp/,おいでよ。森林と人が輝くしもかわ　森林（もり）と大地と人が輝くまち・しもかわ
1,北海道,1469,美深町,びふかちょう,44.48102079,142.3430577,http://www.town.bifuka.hokkaido.jp/,夢いっぱい　北の大地（まち）・びふか
1,北海道,1470,音威子府村,おといねっぷむら,44.72504179,142.2622139,https://www.vill.otoineppu.hokkaido.jp/,木の匂いわがふるさと「森と匠の村」おといねっぷ　大好き音威子府～森と共に、いきいき輝く地域をめざして～
1,北海道,1471,中川町,なかがわちょう,44.81138889,142.0713889,http://www.town.nakagawa.hokkaido.jp/,元気発信　笑顔の大地　夢開花　なかがわ
1,北海道,1472,幌加内町,ほろかないちょう,44.00979823,142.1538298,http://www.town.horokanai.hokkaido.jp/,蕎麦の里　元気な人、豊かな大地　ともに歩む協働のまち　人に自然にやさしい故郷づくり
1,北海道,1481,増毛町,ましけちょう,43.85605933,141.5249105,https://www.town.mashike.hokkaido.jp/,潮風を感じて…自然と味覚のふれあいの町　自然と共生、確かな未来へ…やさしさが実感できる故郷をめざして
1,北海道,1482,小平町,おびらちょう,44.01546152,141.6627616,https://www.town.obira.hokkaido.jp/,海と太陽と緑のさと　よろこび共感・輝きのシンフォニー第2章
1,北海道,1483,苫前町,とままえちょう,44.30614209,141.6529088,http://www.town.tomamae.lg.jp/,風かおる　人が輝き　躍動する町
1,北海道,1484,羽幌町,はぼろちょう,44.36054972,141.6973205,https://www.town.haboro.lg.jp/,心と心をつなぐハートコミュニケーションはぼろ
1,北海道,1485,初山別村,しょさんべつむら,44.53214682,141.7663169,http://www.vill.shosanbetsu.lg.jp/,星空に夢とロマンを求めて
1,北海道,1486,遠別町,えんべつちょう,44.7225084,141.7923268,http://www.town.embetsu.hokkaido.jp/,いきいきと里住夢（リズム）あふれるまち遠別町　豊かな自然　元気で笑顔あふれる明日へ
1,北海道,1487,天塩町,てしおちょう,44.88817257,141.7453521,http://www.teshiotown.hokkaido.jp/,人と自然が共生するこころ豊かで地域が輝く住みよいまち
1,北海道,1511,猿払村,さるふつむら,45.3306092,142.1089722,https://www.vill.sarufutsu.hokkaido.jp/,私たちが「創り・活かし・守り・育む」ふるさと猿払　北方に立つ個性と調和の大地（ふるさと）猿払
1,北海道,1512,浜頓別町,はまとんべつちょう,45.1237794,142.3597348,http://www.town.hamatonbetsu.hokkaido.jp/,白鳥と砂金と笑顔がいっぱい やっぱりこれが浜頓別　未来につなげよう！！ ずっと住み続けたい町 はまとんべつ
1,北海道,1513,中頓別町,なかとんべつちょう,44.96976136,142.2867365,https://www.town.nakatombetsu.hokkaido.jp/,一流の中頓別（いなか）づくり
1,北海道,1514,枝幸町,えさしちょう,44.93873333,142.5814043,http://www.town.esashi.hokkaido.jp/transfer.html,こころが結ぶ「森と海」優しさと活気あふれる北の理想郷
1,北海道,1516,豊富町,とよとみちょう,45.10285676,141.7775026,https://www.town.toyotomi.hokkaido.jp/,日本最北の温泉郷　自然と人に優しい協働のまちづくり
1,北海道,1517,礼文町,れぶんちょう,45.30308199,141.0477509,https://www.town.rebun.hokkaido.jp/,日本最北の島 花の島・礼文島　豊かな自然を未来につなぐいきいきとした元気な礼文づくり
1,北海道,1518,利尻町,りしりちょう,45.18701663,141.1395796,http://www.town.rishiri.hokkaido.jp/2s_index.htm,夢の浮島 利尻島　資源蘇生によるまちづくりをめざします
1,北海道,1519,利尻富士町,りしりふじちょう,45.2475,141.2147222,https://www.town.rishirifuji.hokkaido.jp/rishirifuji/,ふるさとの元気と輝きをもとめて
1,北海道,1520,幌延町,ほろのべちょう,45.01777778,141.8494444,https://www.town.horonobe.lg.jp/,北緯45度の風が吹く町
1,北海道,1543,美幌町,びほろちょう,43.82371383,144.1071991,http://www.town.bihoro.hokkaido.jp/,夢はぐくむ緑の大地びほろ～長生きを楽しめるまちづくり～
1,北海道,1544,津別町,つべつちょう,43.70633069,144.0248025,https://www.town.tsubetsu.hokkaido.jp/,緑とふるさと 愛林のまち津別町　田園工房のまち・つべつを目指して
1,北海道,1545,斜里町,しゃりちょう,43.91138889,144.6708333,https://www.town.shari.hokkaido.jp/,みどりと人間の調和を求めて
1,北海道,1546,清里町,きよさとちょう,43.83523767,144.5946817,https://www.town.kiyosato.hokkaido.jp/,花と緑と交流のまち　人と自然がともに輝き躍動するまち
1,北海道,1547,小清水町,こしみずちょう,43.85674521,144.4620985,https://www.town.koshimizu.hokkaido.jp/,ゆりの花と熱気球のあがる町　マイライフ・タウン 小清水　
1,北海道,1549,訓子府町,くんねっぷちょう,43.72536829,143.7416617,https://www.town.kunneppu.hokkaido.jp/,活力あふれる、エコアグリタウン 豊かなみどり あふれる笑顔 みんなでつくるふれあいのまち～子どもの歓声がひびくまちづくり～
1,北海道,1550,置戸町,おけとちょう,43.67638889,143.5863889,http://www.town.oketo.hokkaido.jp/,緑と清流のまちおけと　自然を愛し、人にやさしいまち
1,北海道,1552,佐呂間町,さろまちょう,44.01785206,143.7747668,https://www.town.saroma.hokkaido.jp/,森と湖のまち　未来をつむぐ時代
1,北海道,1555,遠軽町,えんがるちょう,44.06196432,143.5280486,https://engaru.jp/,森林（もり）と清流（みず）・こころいきいきふれあいのまち～e-ISM・イーイズム～
1,北海道,1559,湧別町,ゆうべつちょう,44.15160274,143.573035,https://www.town.yubetsu.lg.jp/,人と自然が輝くオホーツクのまちづくり
1,北海道,1560,滝上町,たきのうえちょう,44.19222222,143.0777778,https://www.town.takinoue.hokkaido.jp/,人いきいき　町わくわく　童話村たきのうえ　～自立と協働のまちづくり～
1,北海道,1561,興部町,おこっぺちょう,44.46985058,143.1239513,https://www.town.okoppe.lg.jp/cms/,魅力・活力・協力が融和し発展するまち“おこっぺ”
1,北海道,1562,西興部村,にしおこっぺむら,44.32880793,142.9444613,https://www.vill.nishiokoppe.lg.jp/,心安らぐ美しい夢のITタウン
1,北海道,1563,雄武町,おうむちょう,44.58248425,142.9618577,http://www.town.oumu.hokkaido.jp/,海・山・人ひびきあう町オホーツクおうむ　変革と創造に挑むまち・雄武
1,北海道,1564,大空町,おおぞらちょう,43.91194444,144.1725,http://www.town.ozora.hokkaido.jp/,大空と大地の中でふれあいと語らいで創る感動のまち
1,北海道,1571,豊浦町,とようらちょう,42.583409,140.711966,https://www.town.toyoura.hokkaido.jp/,いい人 いいまち 明日を拓く 豊浦町
1,北海道,1575,壮瞥町,そうべつちょう,42.55210949,140.885836,https://www.town.sobetsu.lg.jp/,湖と火山と温泉のまち　「自然・ひと・まち」が響き輝くそうべつ～火山のもたらした、めぐみの郷～
1,北海道,1578,白老町,しらおいちょう,42.55131326,141.3558661,http://www.town.shiraoi.hokkaido.jp/,北海道にある元気まち　町民が主人公 活力あふれるまち
1,北海道,1581,厚真町,あつまちょう,42.72363661,141.8778914,http://www.town.atsuma.lg.jp/office/,いのち満ちる農（みのり）の里あつま大いなる田園の町
1,北海道,1584,洞爺湖町,とうやこちょう,42.55111704,140.7642741,http://www.town.toyako.hokkaido.jp/,湖海と火山と緑の大地が結びあい元気をつくる交流のまち
1,北海道,1585,安平町,あびらちょう,42.76277778,141.8180556,https://www.town.abira.lg.jp/,『くらしの笑顔が広がる　ぬくもりと活力と躍動のまち』
1,北海道,1586,むかわ町,むかわちょう,42.57474771,141.9267449,http://www.town.mukawa.lg.jp/,人と自然が輝く清流と健康のまち
1,北海道,1601,日高町,ひだかちょう,42.48033565,142.0742968,https://www.town.hidaka.hokkaido.jp/,いきいきと働き、学び、安心と笑顔で暮らせるまち
1,北海道,1602,平取町,びらとりちょう,42.58514013,142.1286988,http://www.town.biratori.hokkaido.jp/,一人ひとりがまちづくりの主役です。輝くびらとり未来につなごう。
1,北海道,1604,新冠町,にいかっぷちょう,42.36244309,142.3184391,https://www.niikappu.jp/,「レ・コード」と「音楽」「競走馬」のまち 新冠町　笑顔あふれる レ・コードなまち　にいかっぷ
1,北海道,1607,浦河町,うらかわちょう,42.16834176,142.7682026,https://www.town.urakawa.hokkaido.jp/,丘と海の“まきば”浦河町　心豊かで活力と夢にあふれるまち 浦河町
1,北海道,1608,様似町,さまにちょう,42.12777778,142.9338889,http://www.samani.jp/,アポイの樹風（こかぜ）呼ぶまち　21世紀の鼓動 町民と歩む新しいまちづくり
1,北海道,1609,えりも町,えりもちょう,42.01638889,143.1483333,https://www.town.erimo.lg.jp/,“海と大地のふるさと”えりも町　心豊かで安心・安全な暮らしを創る。新まちづくりデザイン
1,北海道,1610,新ひだか町,しんひだかちょう,42.34125547,142.3686044,https://www.shinhidaka-hokkaido.jp/,いきいき　すこやか　誰もが主役になれるまち
1,北海道,1631,音更町,おとふけちょう,42.99413757,143.1978925,https://www.town.otofuke.hokkaido.jp/,人と大地がひびきあい躍進する快適都市おとふけ
1,北海道,1632,士幌町,しほろちょう,43.16805004,143.2414601,https://www.shihoro.jp/,協働でつくる活き生きしほろ　ふれあいユートピア
1,北海道,1633,上士幌町,かみしほろちょう,43.23263469,143.2961787,https://www.kamishihoro.jp/,人が輝き町が輝く北の元気まち
1,北海道,1634,鹿追町,しかおいちょう,43.09887653,142.9889704,https://www.town.shikaoi.lg.jp/,活きて（経済の発展）生きる（福祉の増進）まちづくり
1,北海道,1635,新得町,しんとくちょう,43.07975642,142.8389096,https://www.shintoku-town.jp/,つどい合い　ささえ合い　そだて合う　自然豊かな町づくり
1,北海道,1636,清水町,しみずちょう,43.01143823,142.8845411,http://www.town.shimizu.hokkaido.jp/,自然と心が響き合うまち・清水　長大な日高山脈と十勝川に抱かれた町
1,北海道,1637,芽室町,めむろちょう,42.91194444,143.0508333,https://www.memuro.net/,みどりの中で　子どもにやさしく　思いやりと　活力に満ちた　協働のまち
1,北海道,1638,中札内村,なかさつないむら,42.69757305,143.1323696,https://www.vill.nakasatsunai.hokkaido.jp/,キラリ輝くうるおいのまち ～花と緑とアートの村～
1,北海道,1639,更別村,さらべつむら,42.65038621,143.1878416,https://www.sarabetsu.jp/,いつまでも住み続けたいまち　豊かさ・安心・笑顔あふれる夢大地
1,北海道,1641,大樹町,たいきちょう,42.4975,143.2788889,https://www.town.taiki.hokkaido.jp/,人・夢・愛　もっと大きく　コスモスのまち　大樹
1,北海道,1642,広尾町,ひろおちょう,42.28593132,143.3116286,https://www.town.hiroo.lg.jp/,心豊かにふれあう海と大地・ひろお
1,北海道,1643,幕別町,まくべつちょう,42.9082019,143.3561006,https://www.town.makubetsu.lg.jp/,パークゴルフとナウマン象のまち　人と大地が躍動し　みんなで築く　ふれあいの郷土（さと）
1,北海道,1644,池田町,いけだちょう,42.92900742,143.4485303,https://www.town.hokkaido-ikeda.lg.jp/,出会い　ふれあい　個性豊かなふるさと　いけだ
1,北海道,1645,豊頃町,とよころちょう,42.80102049,143.5058896,http://www.toyokoro.jp/,やさしさと躍動のふれ愛タウンとよころ
1,北海道,1646,本別町,ほんべつちょう,43.12467344,143.6105661,https://www.town.honbetsu.hokkaido.jp/,いいひと　いいまち　いきいきほんべつ
1,北海道,1647,足寄町,あしょろちょう,43.24480211,143.5540526,https://www.town.ashoro.hokkaido.jp/,緑輝く大地に人のやさしさがあふれるまち
1,北海道,1648,陸別町,りくべつちょう,43.46888889,143.7472222,https://www.rikubetsu.jp/,空・森・土と共に　町民の絆でつくる　うるおいあふれる　きらり☆ひかる町　陸別町
1,北海道,1649,浦幌町,うらほろちょう,42.80895698,143.6585781,https://www.urahoro.jp/,豊かな自然心ふれあう未来をつくるまち　ともに実践し、夢と希望のもてるまちづくり
1,北海道,1661,釧路町,くしろちょう,42.99617231,144.4660793,http://www.town.kushiro.lg.jp/,まるごと・夢自然空間、海のかがやきと森のぬくもりが生きつづけるまち
1,北海道,1662,厚岸町,あっけしちょう,43.05194444,144.8475,https://www.akkeshi-town.jp/,花と味覚と歴史の町　共生・躍動・協働 暮らしに豊かさを実感できるまち
1,北海道,1663,浜中町,はまなかちょう,43.07711177,145.1295118,https://www.townhamanaka.jp/,生命（いのち）支える大地と海　自然と調和するまち・はまなか～未来につなごう豊かな環境～
1,北海道,1664,標茶町,しべちゃちょう,43.30334699,144.6006586,http://www.town.shibecha.hokkaido.jp/,夢を織りなす「標茶活力」の結集～一人からはじまるまちづくり～
1,北海道,1665,弟子屈町,てしかがちょう,43.48521336,144.4593251,https://www.town.teshikaga.hokkaido.jp/,摩周湖といで湯のロマン弟子屈町　大自然のステージを未来へつなぎ、輝く人々がハーモニーを奏でるまち
1,北海道,1667,鶴居村,つるいむら,43.23007174,144.3211866,https://www.vill.tsurui.lg.jp/,四季の詩が流れる大地　～神舞う、ふるさと鶴居村～　夢・チャレンジ　鶴居びと～四季の詩が流れる大地～
1,北海道,1668,白糠町,しらぬかちょう,42.95616451,144.0717316,https://www.town.shiranuka.lg.jp/,生き活きしらぬか笑顔輝くまちを目指して
1,北海道,1691,別海町,べつかいちょう,43.3940015,145.1173283,https://betsukai.jp/,笑顔あふれる豊かさ実感のまち　べつかい
1,北海道,1692,中標津町,なかしべつちょう,43.55520483,144.971387,https://www.nakashibetsu.jp/,環境首都なかしべつ　活力みなぎる緑の郷土なかしべつ…人と自然と街の共生…
1,北海道,1693,標津町,しべつちょう,43.66126914,145.1313251,https://www.shibetsutown.jp/,萌える海と大地さわやか交流郷～小さくてもキラリと光るまち標津町～
1,北海道,1694,羅臼町,らうすちょう,44.02194444,145.1894444,https://www.rausu-town.jp/,魚の城下町 らうす　人・まち・自然 いきいき 知床新時代
2,青森県,2201,青森市,あおもりし,40.82222222,140.7475,https://www.city.aomori.aomori.jp/,市民と共につくる 市民のための市政　水と緑と人が共生し 地域の絆で築く 市民主役の元気都市・あおもり
2,青森県,2202,弘前市,ひろさきし,40.60305556,140.4641667,http://www.city.hirosaki.aomori.jp/,自然と共に生きる豊かな産業・文化都市
2,青森県,2203,八戸市,はちのへし,40.51222222,141.4883333,https://www.city.hachinohe.aomori.jp/,海と大地が響きあう北の中核都市
2,青森県,2204,黒石市,くろいしし,40.64277778,140.5944444,http://www.city.kuroishi.aomori.jp/,あずましの里くろいし
2,青森県,2205,五所川原市,ごしょがわらし,40.80805556,140.44,http://www.city.goshogawara.lg.jp/,活力ある・明るく住みよい豊かなまち
2,青森県,2206,十和田市,とわだし,40.61277778,141.2058333,http://www.city.towada.lg.jp/,感動・創造都市　～人が輝き自然が輝きまちの個性が輝く理想郷～
2,青森県,2207,三沢市,みさわし,40.68333333,141.3688889,https://www.city.misawa.lg.jp/,人とまちみんなで創る国際文化都市
2,青森県,2208,むつ市,むつし,41.29305556,141.1830556,https://www.city.mutsu.lg.jp/,人と自然が輝く　やすらぎと活力の大地　陸奥の国
2,青森県,2209,つがる市,つがるし,40.80888889,140.38,https://www.city.tsugaru.aomori.jp/,新田の歴史が彩る日本のふるさと
2,青森県,2210,平川市,ひらかわし,40.58416667,140.5663889,https://www.city.hirakawa.lg.jp/,人、地域、産業がきらめくまち
2,青森県,2301,平内町,ひらないまち,40.92611111,140.9561111,https://www.town.hiranai.aomori.jp/,人と自然が調和した躍動感あふれる元気な町
2,青森県,2303,今別町,いまべつまち,41.18194444,140.4816667,https://www.town.imabetsu.lg.jp/,菊薫り、荒馬っ子踊る、青函トンネル入口の町　個性豊かな充実した生活を送れるまち
2,青森県,2304,蓬田村,よもぎたむら,40.97194444,140.6558333,http://www.vill.yomogita.lg.jp/,北緯41度。美しい緑と、青い海　自然と調和する活力あるまちづくり
2,青森県,2307,外ヶ浜町,そとがはままち,41.04333333,140.6325,http://www.town.sotogahama.lg.jp/,青い海・力強い風・緑豊かな半島　三つの個性を結んでつくるそとがはま
2,青森県,2321,鰺ヶ沢町,あじがさわまち,40.78,140.2088889,http://www.town.ajigasawa.lg.jp/,世界遺産・白神山地　みんなで描こう21世紀のあじがさわ　自然・人・文化に満ちた わのまち あじがさわ
2,青森県,2323,深浦町,ふかうらまち,40.64805556,139.9277778,https://www.town.fukaura.lg.jp/,世界自然遺産 白神山地に 抱かれた町　豊かな‘わ’をつなぐ 活気につつまれる「深碧」（しんぺき）のまち
2,青森県,2343,西目屋村,にしめやむら,40.57694444,140.2963889,https://www.nishimeya.jp/,世界遺産と水源の里
2,青森県,2361,藤崎町,ふじさきまち,40.65611111,140.5025,http://www.town.fujisaki.lg.jp/,みんなで創る心豊かな優しいまち
2,青森県,2362,大鰐町,おおわにまち,40.51833333,140.5677778,http://www.town.owani.lg.jp/,健やか・彩り・輝きのまち おおわに　スキーと温泉とりんごのまち
2,青森県,2367,田舎館村,いなかだてむら,40.63166667,140.55,http://www.vill.inakadate.lg.jp/,田舎だーって　I（い）ーじゃん！
2,青森県,2381,板柳町,いたやなぎまち,40.69611111,140.4575,https://www.town.itayanagi.aomori.jp/,日本一の「りんごの里」づくりをめざす
2,青森県,2384,鶴田町,つるたまち,40.75888889,140.4286111,http://www.town.tsuruta.lg.jp/,鶴と国際交流の里
2,青森県,2387,中泊町,なかどまりまち,40.96527778,140.4397222,http://www.town.nakadomari.lg.jp/index.cfm,大地と恵みと海の幸、心ひとつに希望の町
2,青森県,2401,野辺地町,のへじまち,40.86444444,141.1286111,http://www.town.noheji.aomori.jp/,心うるおう北の町
2,青森県,2402,七戸町,しちのへまち,40.74472222,141.1577778,http://www.town.shichinohe.lg.jp/,潤いと彩りあふれる田園文化都市をめざして
2,青森県,2405,六戸町,ろくのへまち,40.60972222,141.3247222,http://www.town.rokunohe.aomori.jp/,いま六戸　未来を予感
2,青森県,2406,横浜町,よこはままち,41.08333333,141.2475,http://www.town.yokohama.lg.jp/,山海の恵み　ふれあいの里横浜町　菜の花のまち
2,青森県,2408,東北町,とうほくまち,40.72805556,141.2577778,http://www.town.tohoku.lg.jp/,みどりの大地と小川原湖に彩られた　いのち輝くいで湯のさと
2,青森県,2411,六ヶ所村,ろっかしょむら,40.9675,141.3744444,http://www.rokkasho.jp/,自然が彩る豊かな未来を拓く「躍進・発展のまち」　－人と文化を育み科学と産業がはばたく－
2,青森県,2412,おいらせ町,おいらせちょう,40.59916667,141.3977778,https://www.town.oirase.aomori.jp/,奥入瀬川の恵みと笑顔あふれるまち　奥入瀬の清流にはぐくまれた田園定住都市
2,青森県,2423,大間町,おおままち,41.52666667,140.9072222,https://www.town.ooma.lg.jp/,北海道の山並みを北に仰ぎ 津軽海峡の雄大な自然に抱かれた 本州最北端のまち　自立した、活力と元気あふれる、輝くまち「大間」
2,青森県,2424,東通村,ひがしどおりむら,41.27805556,141.3294444,http://www.vill.higashidoori.lg.jp/,限りなく飛躍する未来を秘めた村
2,青森県,2425,風間浦村,かざまうらむら,41.4875,140.9955556,https://www.kazamaura.jp/,本州最北端の村　活力あふれる村づくり
2,青森県,2426,佐井村,さいむら,41.42972222,140.8591667,http://www.vill.sai.lg.jp/,赤十字の旗ひるがえる里
2,青森県,2441,三戸町,さんのへまち,40.37833333,141.2586111,https://www.town.sannohe.aomori.jp/,人･自然･文化　ほんものが息づくまち　さんのへ
2,青森県,2442,五戸町,ごのへまち,40.53111111,141.3077778,http://www.town.gonohe.aomori.jp/,みんなで創る、活気のあるまち「ごのへ」
2,青森県,2443,田子町,たっこまち,40.34,141.1519444,http://www.town.takko.lg.jp/,緑の大地に協働と自立のまちづくり　にんにくの町・田子
2,青森県,2445,南部町,なんぶちょう,40.46694444,141.3816667,https://www.town.aomori-nanbu.lg.jp/,名久井岳と馬淵川に抱かれ　自然・環境・福祉に恵まれた交流のまち
2,青森県,2446,階上町,はしかみちょう,40.4525,141.6211111,https://www.town.hashikami.lg.jp/,つつじといちご煮の里　ゆめ みらい 心ときめく ふるさとづくり
2,青森県,2450,新郷村,しんごうむら,40.46583333,141.1733333,http://www.vill.shingo.aomori.jp/,歴史とロマンの里　快適で明るく豊かな活力ある新郷
3,岩手県,3201,盛岡市,もりおかし,39.70194444,141.1541667,http://www.city.morioka.iwate.jp/,人々が集まり・人にやさしい・世界に通ずる元気なまち盛岡
3,岩手県,3202,宮古市,みやこし,39.64138889,141.9572222,https://www.city.miyako.iwate.jp/,『宮古 みんなが やすらぐ このまち みやこ』『森・川・海』とひとが共生する安らぎのまち みやこ
3,岩手県,3203,大船渡市,おおふなとし,39.08222222,141.7083333,https://www.city.ofunato.iwate.jp/,活力で輝く未来　国際港湾都市　大船渡
3,岩手県,3205,花巻市,はなまきし,39.38861111,141.1166667,https://www.city.hanamaki.iwate.jp/,早池峰の風薫る　安らぎと活力にみちた　イーハトーブはなまき
3,岩手県,3206,北上市,きたかみし,39.28666667,141.1130556,https://www.city.kitakami.iwate.jp/,きらめく北上 水と緑豊かな文化・技術の交流都市きたかみ　私たちがつくる笑顔あふれるまち
3,岩手県,3207,久慈市,くじし,40.19027778,141.7752778,https://www.city.kuji.iwate.jp/index.html,夢・希望・未来に向かって ひと輝くまち　「白樺ゆれる 琥珀の大地 海女の国」
3,岩手県,3208,遠野市,とおのし,39.3275,141.5336111,https://www.city.tono.iwate.jp/,永遠の日本のふるさと遠野
3,岩手県,3209,一関市,いちのせきし,38.93444444,141.1263889,https://www.city.ichinoseki.iwate.jp/,人と人、地域と地域が結び合い　未来輝く　いちのせき
3,岩手県,3210,陸前高田市,りくぜんたかたし,39.01527778,141.6294444,https://www.city.rikuzentakata.iwate.jp/,健康で文化の薫る海浜・交流都市
3,岩手県,3211,釜石市,かまいしし,39.27583333,141.8855556,https://www.city.kamaishi.iwate.jp/,人と技術が輝く海と緑の交流拠点　かまいし
3,岩手県,3213,二戸市,にのへし,40.27111111,141.3047222,https://www.city.ninohe.lg.jp/,活力と安心、歴史文化の薫る拠点都市
3,岩手県,3214,八幡平市,はちまんたいし,39.92638889,141.0952778,https://www.city.hachimantai.lg.jp/,農（みのり）と輝（ひかり）の大地
3,岩手県,3215,奥州市,おうしゅうし,39.14444444,141.1388889,https://www.city.oshu.iwate.jp/,歴史息づく健康文化都市　産業の力みなぎる副県都
3,岩手県,3216,滝沢市,たきざわし,39.73472222,141.0769444,http://www.city.takizawa.iwate.jp/,岩手山（おやま）の里に「至福」の虹を　人と人、人と地域、人と自然が共栄し、生き生きと幸せ輝く「たきざわ」
3,岩手県,3301,雫石町,しずくいしちょう,39.69611111,140.9755556,https://www.town.shizukuishi.iwate.jp/,水と緑のきれいなふるさと　山と牧場（まきば）といで湯の町　「キラリ 輝く しずくいし」
3,岩手県,3302,葛巻町,くずまきまち,40.03972222,141.4363889,https://www.town.kuzumaki.iwate.jp/,北緯40度 ミルクとワインとクリーンエネルギーの町 くずまき　地域の資源を宝に変えて 幸せを実感できる高原文化の町
3,岩手県,3303,岩手町,いわてまち,39.9725,141.2125,http://town.iwate.iwate.jp/,北上川の源泉、北緯40度の町、彫刻のある町、ホッケーの町
3,岩手県,3321,紫波町,しわちょう,39.55472222,141.1677778,https://www.town.shiwa.iwate.jp/,住民基点による環境と福祉のまち　ひと、こころ、いのちの和で育む、豊かな未来
3,岩手県,3322,矢巾町,やはばちょう,39.60583333,141.1430556,https://www.town.yahaba.iwate.jp/,みんなでつくる うるおい豊かに 躍進するまち やはば
3,岩手県,3366,西和賀町,にしわがまち,39.31777778,140.7791667,https://www.town.nishiwaga.lg.jp/,緑と雪・ほっとで健康のまち　「産業」「環境」「健康」人が輝き 地域の力満ちる町
3,岩手県,3381,金ケ崎町,かねがさきちょう,39.19555556,141.1161111,https://www.town.kanegasaki.iwate.jp/,自立への道ガーデンシティー（田園都市）金ケ崎 ～共生、調和、そして成長～
3,岩手県,3402,平泉町,ひらいずみちょう,38.98666667,141.1141667,https://www.town.hiraizumi.iwate.jp/,やすらぎと文化をおりなす千年のまちづくり　－世界遺産を目指す町－
3,岩手県,3441,住田町,すみたちょう,39.14194444,141.5758333,https://www.town.sumita.iwate.jp/,里山でいっしょに暮らしたい　森林・林業日本一のまち
3,岩手県,3461,大槌町,おおつちちょう,39.35972222,141.9063889,https://www.town.otsuchi.iwate.jp/,小粒でもキラリと光る素敵な“くに”への途（みち）　自立・共生・協働でしっかりと歩み続けるまち－大槌－
3,岩手県,3482,山田町,やまだまち,39.4675,141.9488889,https://www.town.yamada.iwate.jp/,響きます 人・海・森のハーモニー　－みんなで創る ひとと産業が元気なまち 山田－
3,岩手県,3483,岩泉町,いわいずみちょう,39.84305556,141.7966667,https://www.town.iwaizumi.lg.jp/,大きな樹が育ち明日が見える岩泉
3,岩手県,3484,田野畑村,たのはたむら,39.93027778,141.8888889,https://www.vill.tanohata.iwate.jp/,人と自然が輝き 心ふれあう 創造の村・たのはた
3,岩手県,3485,普代村,ふだいむら,40.00527778,141.8861111,https://www.vill.fudai.iwate.jp/,北緯40度東端の地球村　ふだい
3,岩手県,3501,軽米町,かるまいまち,40.32666667,141.4605556,http://www.town.karumai.iwate.jp/index.html,雑穀の里・軽米へようこそ　軽米にはヒエ島という楽園があるらしい　花と緑があふれ 人が輝く ふれあいと 健康文化の町
3,岩手県,3503,野田村,のだむら,40.11,141.8180556,http://www.vill.noda.iwate.jp/,北リアスの砂浜に魅せられて
3,岩手県,3506,九戸村,くのへむら,40.21138889,141.4188889,http://www.vill.kunohe.iwate.jp/,花と緑が織りなす、安らぎの里
3,岩手県,3507,洋野町,ひろのちょう,40.40861111,141.7180556,http://www.town.hirono.iwate.jp/,海と高原の牧場（まきば）　人々がふれあい 心豊かに いきいきと躍動するまち
3,岩手県,3524,一戸町,いちのへまち,40.21305556,141.2952778,https://www.town.ichinohe.iwate.jp/,個が光る調和のまち　白と緑のエッセイ 一戸町
4,宮城県,4100,仙台市,せんだいし,38.26805556,140.8697222,https://www.city.sendai.jp/,杜の都・仙台
4,宮城県,4101,仙台市 青葉区,せんだいし あおばく,38.26916667,140.8705556,https://www.city.sendai.jp/aobaku/,
4,宮城県,4102,仙台市 宮城野区,せんだいし みやぎのく,38.26638889,140.9102778,https://www.city.sendai.jp/miyaginoku/,
4,宮城県,4103,仙台市 若林区,せんだいし わかばやしく,38.24416667,140.9008333,https://www.city.sendai.jp/wakabayashiku/,
4,宮城県,4104,仙台市 太白区,せんだいし たいはくく,38.22444444,140.8772222,https://www.city.sendai.jp/taihakuku/,
4,宮城県,4105,仙台市 泉区,せんだいし いずみく,38.32638889,140.8813889,https://www.city.sendai.jp/izumiku/,
4,宮城県,4202,石巻市,いしのまきし,38.43416667,141.3027778,https://www.city.ishinomaki.lg.jp/index.html,わたしたちが創り出す　笑顔と自然あふれる　元気なまち
4,宮城県,4203,塩竈市,しおがまし,38.31444444,141.0222222,https://www.city.shiogama.miyagi.jp/,おいしさと笑顔がつどう みなとまち 塩竈
4,宮城県,4205,気仙沼市,けせんぬまし,38.90833333,141.57,https://www.kesennuma.miyagi.jp/,人と自然が輝く　食彩豊かなまち
4,宮城県,4206,白石市,しろいしし,38.00222222,140.6197222,https://www.city.shiroishi.miyagi.jp/,市民と行政のパートナーシップによるくらし日本一のまちづくり
4,宮城県,4207,名取市,なとりし,38.17166667,140.8919444,https://www.city.natori.miyagi.jp/,元気な都市（まち）・名取
4,宮城県,4208,角田市,かくだし,37.97722222,140.7819444,https://www.city.kakuda.lg.jp/,あぶくまの風かおる健康都市
4,宮城県,4209,多賀城市,たがじょうし,38.29388889,141.0044444,https://www.city.tagajo.miyagi.jp/,未来を育むまち　史都 多賀城
4,宮城県,4211,岩沼市,いわぬまし,38.10444444,140.87,https://www.city.iwanuma.miyagi.jp/,Iのあるまち　いわぬま
4,宮城県,4212,登米市,とめし,38.69194444,141.1877778,https://www.city.tome.miyagi.jp/,夢・大地　みんなが愛する水の里
4,宮城県,4213,栗原市,くりはらし,38.73027778,141.0213889,https://www.kuriharacity.jp/,市民が創（つく）る　くらしたい栗原
4,宮城県,4214,東松島市,ひがしまつしまし,38.42638889,141.2105556,https://www.city.higashimatsushima.miyagi.jp/,心輝き　自然輝く　東松島
4,宮城県,4215,大崎市,おおさきし,38.57722222,140.9555556,https://www.city.osaki.miyagi.jp/,宝の都（くに）・大崎 ～ずっとおおさき・いつかはおおさき～
4,宮城県,4216,富谷市,とみやし,38.4,140.8952778,https://www.tomiya-city.miyagi.jp/,笑顔輝く　あったか富谷
4,宮城県,4301,蔵王町,ざおうまち,38.09805556,140.6588889,https://www.town.zao.miyagi.jp/,いきいき優タウン・ざおう　憧れの町、蔵王をめざして。
4,宮城県,4302,七ヶ宿町,しちかしゅくまち,37.99305556,140.4416667,https://town.shichikashuku.miyagi.jp/,だれもがだいすきな水守の郷しちかしゅく
4,宮城県,4321,大河原町,おおがわらまち,38.04944444,140.7308333,https://www.town.ogawara.miyagi.jp/,開かれた先進のまち、おおがわら
4,宮城県,4322,村田町,むらたまち,38.11861111,140.7225,http://www.town.murata.miyagi.jp/,一生　住みたくなる町「むらた」
4,宮城県,4323,柴田町,しばたまち,38.05638889,140.7658333,https://www.town.shibata.miyagi.jp/,美しい自然の中で文化と山号が融合したコンパクトな創造都市
4,宮城県,4324,川崎町,かわさきまち,38.17777778,140.6436111,http://www.town.kawasaki.miyagi.jp/,人と自然が息づく美しいまち　森をつくるまち　かわさき
4,宮城県,4341,丸森町,まるもりまち,37.91138889,140.7655556,http://www.town.marumori.miyagi.jp/,水と緑の輝くまち　丸森
4,宮城県,4361,亘理町,わたりちょう,38.03777778,140.8527778,https://www.town.watari.miyagi.jp/,伊達なわたり　みんなできずく　わたしのわたり
4,宮城県,4362,山元町,やまもとちょう,37.9625,140.8777778,https://www.town.yamamoto.miyagi.jp/,明るく　住みよい　和のある町
4,宮城県,4401,松島町,まつしままち,38.38138889,141.0691667,https://www.town.miyagi-matsushima.lg.jp/,歴史・文化の継承と創造
4,宮城県,4404,七ヶ浜町,しちがはままち,38.30472222,141.0594444,https://www.shichigahama.com/,うみ・ひと・まち　七ヶ浜
4,宮城県,4406,利府町,りふちょう,38.33027778,140.9755556,https://www.town.rifu.miyagi.jp/,ひと・こころ・まち　きらめく躍動のステージ
4,宮城県,4421,大和町,たいわちょう,38.4375,140.8863889,https://www.town.taiwa.miyagi.jp/,豊かな自然と共生し、輝く未来に向けて躍進する　みやぎの中核都市・大和町
4,宮城県,4422,大郷町,おおさとちょう,38.42444444,141.0044444,https://www.town.miyagi-osato.lg.jp/,大きな未来をはぐくむ　やすらぎの郷　夢ランド・おおさと　『農村』『都市』『人』が共生する田園都市
4,宮城県,4424,大衡村,おおひらむら,38.4675,140.8802778,http://www.village.ohira.miyagi.jp/,みんなで創る新たな万葉の里・おおひら
4,宮城県,4444,色麻町,しかまちょう,38.54888889,140.85,http://www.town.shikama.miyagi.jp/,「カッパのふるさと」色麻町
4,宮城県,4445,加美町,かみまち,38.57194444,140.855,http://www.town.kami.miyagi.jp/,美しい自然、こころやさしい人々、活力ある生活文化のまち・加美
4,宮城県,4501,涌谷町,わくやちょう,38.53972222,141.1283333,http://www.town.wakuya.miyagi.jp/,元気　わくや　黄金郷‐人間力かがやくまち　涌谷町‐
4,宮城県,4505,美里町,みさとまち,38.54444444,141.0569444,https://www.town.misato.miyagi.jp/,人つどい、共に築く、幸せと豊かさを実感できる町
4,宮城県,4581,女川町,おながわちょう,38.44555556,141.4444444,https://www.town.onagawa.miyagi.jp/,海と緑と魚の町・明日のエネルギーを担う町　海を舞台に発展する町・女川
4,宮城県,4606,南三陸町,みなみさんりくちょう,38.67777778,141.4463889,https://www.town.minamisanriku.miyagi.jp/,自然・ひと・なりわいが紡ぐ 安らぎと賑わいのあるまち・南三陸町
5,秋田県,5201,秋田市,あきたし,39.71972222,140.1025,https://www.city.akita.lg.jp/,しあわせ実感　緑の健康文化都市
5,秋田県,5202,能代市,のしろし,40.21222222,140.0266667,https://www.city.noshiro.lg.jp/,みんなでつくる　わのまち　能代
5,秋田県,5203,横手市,よこてし,39.31055556,140.5533333,https://www.city.yokote.lg.jp/,豊かな自然 豊かな心 夢あふれる田園都市
5,秋田県,5204,大館市,おおだてし,40.27166667,140.5647222,https://www.city.odate.lg.jp/,21世紀に飛翔する環境先端都市
5,秋田県,5206,男鹿市,おがし,39.88666667,139.8477778,http://www.city.oga.akita.jp/,教育・観光・環境が豊かな文化都市
5,秋田県,5207,湯沢市,ゆざわし,39.16388889,140.495,http://www.city-yuzawa.jp/,美と技が冴える、いで湯の郷　人と自然が輝き、ふるさとの技がさえる　美しさあふれるまち
5,秋田県,5209,鹿角市,かづのし,40.21583333,140.7883333,https://www.city.kazuno.akita.jp/,十八（とわ）の里 あんとら 鹿角（かづの）　出逢い 賑わい 夢をかなえるまち・鹿角
5,秋田県,5210,由利本荘市,ゆりほんじょうし,39.38583333,140.0488889,https://www.city.yurihonjo.lg.jp/,人と自然が共生する 躍動と創造の都市
5,秋田県,5211,潟上市,かたがみし,39.88333333,139.9888889,https://www.city.katagami.lg.jp/,活き生き かたがみの夢づくり 一人ひとりが輝く ひとと環境に優しい田園都市
5,秋田県,5212,大仙市,だいせんし,39.45305556,140.4755556,https://www.city.daisen.lg.jp/,人が活き 人が集う 夢のある田園交流都市
5,秋田県,5213,北秋田市,きたあきたし,40.22611111,140.3708333,https://www.city.kitaakita.akita.jp/,杜と祀りの郷　「自然」「ひと」が調和し活気とぬくもりのある交流都市
5,秋田県,5214,にかほ市,にかほし,39.20305556,139.9077778,https://www.city.nikaho.akita.jp/,日本海と鳥海山に抱かれたまち　夢あるまち・豊かなまち・元気なまち
5,秋田県,5215,仙北市,せんぼくし,39.7,140.7305556,https://www.city.semboku.akita.jp/,観光産業を活かした北東北の交流拠点都市をめざして
5,秋田県,5303,小坂町,こさかまち,40.32777778,140.7469444,https://www.town.kosaka.akita.jp/,はずむ小坂町
5,秋田県,5327,上小阿仁村,かみこあにむら,40.06333333,140.2958333,https://www.vill.kamikoani.akita.jp/forms/top/top.aspx,秋田杉とコアニチドリの里　緑のふるさと ひらこう あすの上小阿仁
5,秋田県,5346,藤里町,ふじさとまち,40.27833333,140.2619444,https://www.town.fujisato.akita.jp/,緑と魅力あふれる町　世界自然遺産白神山地の麓
5,秋田県,5348,三種町,みたねちょう,40.10166667,140.005,https://www.town.mitane.akita.jp/,豊かな自然と大地の恵み、心ふれあう協働のまち
5,秋田県,5349,八峰町,はっぽうちょう,40.31888889,140.0386111,http://www.town.happou.akita.jp/,白神の自然と人とで創るやすらぎのまち
5,秋田県,5361,五城目町,ごじょうめまち,39.94416667,140.1116667,https://www.town.gojome.akita.jp/,朝市と城のある町　思いやりと活力に満ちたふるさとの創生
5,秋田県,5363,八郎潟町,はちろうがたまち,39.94944444,140.0733333,https://www.town.hachirogata.akita.jp/,人・環境・文化のきらめくまち八郎潟
5,秋田県,5366,井川町,いかわまち,39.91416667,140.0816667,http://www.town.ikawa.akita.jp/,美しいまち、楽しいまち、健康なまち
5,秋田県,5368,大潟村,おおがたむら,40.01777778,139.96,https://www.ogata.or.jp/,農業と四季折々の自然が豊かな大潟村　日本最大の干拓地に広がる緑豊かな村　豊かな自然 みなぎる活力 人いきいき 元気な大潟村
5,秋田県,5434,美郷町,みさとちょう,39.46166667,140.5825,https://www.town.misato.akita.jp/,美郷がいちばん、すきです美郷
5,秋田県,5463,羽後町,うごまち,39.19944444,140.4130556,https://www.town.ugo.lg.jp/,緑と踊りと雪の町　人が輝き、人が活きるまちづくり
5,秋田県,5464,東成瀬村,ひがしなるせむら,39.17888889,140.6488889,http://www.higashinaruse.com/,さわやかなるせ 仙人の郷
6,山形県,6201,山形市,やまがたし,38.25555556,140.3397222,https://www.city.yamagata-yamagata.lg.jp/,みんなで創る「山形らしさ」が輝くまち
6,山形県,6202,米沢市,よねざわし,37.92222222,140.1169444,https://www.city.yonezawa.yamagata.jp/,上杉の城下町　豊かさとやすらぎ 共に創りあげる ときめきの米沢
6,山形県,6203,鶴岡市,つるおかし,38.72722222,139.8266667,https://www.city.tsuruoka.lg.jp/,人 くらし 自然 みんないきいき 心やすらぐ文化をつむぐ悠久のまち 鶴岡
6,山形県,6204,酒田市,さかたし,38.91444444,139.8363889,https://www.city.sakata.lg.jp/,人・ふるさと・交流が奏でるシンフォニー　人いきいいき まち快適 未来創造都市 酒田
6,山形県,6205,新庄市,しんじょうし,38.76472222,140.3019444,https://www.city.shinjo.yamagata.jp/,緑輝く いきいき 新庄　自然と共生 暮らしに活力 心豊かに笑顔輝くまち 新庄
6,山形県,6206,寒河江市,さがえし,38.38111111,140.2761111,https://www.city.sagae.yamagata.jp/,夢追い 人・緑輝く さくらんぼの都市（まち） 寒河江
6,山形県,6207,上山市,かみのやまし,38.14972222,140.2677778,https://www.city.kaminoyama.yamagata.jp/,蔵王と城と茂吉のふるさと 健やか交流都市・かみのやま
6,山形県,6208,村山市,むらやまし,38.48361111,140.3805556,https://www.city.murayama.lg.jp/,さわやかな四季の風が吹くまち　地域と人が輝く交流創造都市　村山市
6,山形県,6209,長井市,ながいし,38.10777778,140.0405556,https://www.city.nagai.yamagata.jp/,協働・創造・未来の鼓動　実感“ながい”－水と緑と花のまち－
6,山形県,6210,天童市,てんどうし,38.36222222,140.3783333,https://www.city.tendo.yamagata.jp/,将棋駒といで湯とフルーツの里　“笑顔 にぎわい しあわせ実感 健康都市”
6,山形県,6211,東根市,ひがしねし,38.43138889,140.3911111,https://www.city.higashine.yamagata.jp/,果樹王国ひがしね　しあわせつくる 学びと交流のまち
6,山形県,6212,尾花沢市,おばなざわし,38.60083333,140.4058333,http://www.city.obanazawa.yamagata.jp/,雪とスイカと花笠のまち　人と自然がおりなすふれあいの里
6,山形県,6213,南陽市,なんようし,38.05527778,140.1483333,http://www.city.nanyo.yamagata.jp/,菊とぶどうといで湯の里　確かな未来へ 夢はぐくむまち 南陽
6,山形県,6301,山辺町,やまのべまち,38.28916667,140.2625,https://www.town.yamanobe.yamagata.jp/,森と湖畔のふるさと、ファッションのまち やまのべ
6,山形県,6302,中山町,なかやままち,38.33333333,140.2830556,https://www.town.nakayama.yamagata.jp/,いも煮会発祥のまち ふれあいと絆 緑豊かな 輝くふるさと なかやま ーみんなで創る 安心・躍動・協働のまちー
6,山形県,6321,河北町,かほくちょう,38.42638889,140.3144444,https://www.town.kahoku.yamagata.jp/,雛とべに花の里 人輝き ひらく未来
6,山形県,6322,西川町,にしかわまち,38.42666667,140.1477778,https://www.town.nishikawa.yamagata.jp/,雪と緑と太陽の町
6,山形県,6323,朝日町,あさひまち,38.29916667,140.1458333,https://www.town.asahi.yamagata.jp/,りんごとワインの里　空気澄み 人つながり 志高く 未来を拓く 朝日町
6,山形県,6324,大江町,おおえまち,38.38083333,140.2066667,http://www.town.oe.yamagata.jp/,ここに暮らす喜びを みんなが実感できる町
6,山形県,6341,大石田町,おおいしだまち,38.59388889,140.3727778,https://www.town.oishida.yamagata.jp/,美しい自然と共生し、安心して暮らせる あたたかいまち　水と緑と文化の町 大石田
6,山形県,6361,金山町,かねやままち,38.88333333,140.3394444,https://www.town.kaneyama.yamagata.jp/,四季奏でるまち。　美しい自然・清い心の町　かねやま
6,山形県,6362,最上町,もがみまち,38.75861111,140.5194444,https://mogami.tv/,歴史と温泉と緑の町　人が元気 地域が元気 産業が元気「キラリ輝く田園空間博物館の創造」　交流人口100万人をめざして
6,山形県,6363,舟形町,ふながたまち,38.69166667,140.32,http://www.town.funagata.yamagata.jp/,若あゆと古代ロマンの里　出あい ふれあい 支えあい ～新たな「結い」の創造～
6,山形県,6364,真室川町,まむろがわまち,38.85777778,140.2525,http://www.yume-net.org/,人が輝き 町が輝き 未来が輝く まむろ川
6,山形県,6365,大蔵村,おおくらむら,38.70416667,140.2305556,http://www.vill.ohkura.yamagata.jp/,むら美しく・人いきいき・キラリおおくら
6,山形県,6366,鮭川村,さけがわむら,38.79611111,140.2216667,http://www.vill.sakegawa.yamagata.jp/,人と自然と文化が輝くむら 鮭川
6,山形県,6367,戸沢村,とざわむら,38.73777778,140.1436111,http://www.vill.tozawa.yamagata.jp/,豊かな自然に四季のかおりと舟唄のこだまする村
6,山形県,6381,高畠町,たかはたまち,38.00277778,140.1891667,https://www.town.takahata.yamagata.jp/,まほろばの里 たかはた　すべてのいのちを大切にし いきいきと輝くまち
6,山形県,6382,川西町,かわにしまち,38.00444444,140.0458333,https://www.town.kawanishi.yamagata.jp/,緑と愛と丘のあるまち　人かがやき ダリヤと文化が咲き誇るまち
6,山形県,6401,小国町,おぐにまち,38.06138889,139.7433333,http://www.town.oguni.yamagata.jp/,人と自然が織りなす やさしい暮らしがあるまち “白い森の国おぐに”
6,山形県,6402,白鷹町,しらたかまち,38.18305556,140.0986111,http://www.town.shirataka.lg.jp/,笑顔かがやき 心かよう 美しいまち
6,山形県,6403,飯豊町,いいでまち,38.04583333,139.9875,https://www.town.iide.yamagata.jp/,田園の息吹が暮らしを豊かにするまち
6,山形県,6426,三川町,みかわまち,38.79444444,139.8497222,https://www.town.mikawa.yamagata.jp/,みんなで創り育む「いのち、自然、豊かさ」人輝くまち みかわ　ハートフルタウンみかわ
6,山形県,6428,庄内町,しょうないまち,38.84972222,139.9047222,https://www.town.shonai.lg.jp/,自然はみんなのエネルギー いきいき元気な 田園タウン
6,山形県,6461,遊佐町,ゆざまち,39.01472222,139.9075,http://www.town.yuza.yamagata.jp/,安心とぬくもり 生きる喜び しあわせ空間 ゆざの創造
7,福島県,7201,福島市,ふくしまし,37.76083333,140.4747222,https://www.city.fukushima.fukushima.jp/,花も“み”もある福島市
7,福島県,7202,会津若松市,あいづわかまつし,37.49472222,139.9297222,https://www.city.aizuwakamatsu.fukushima.jp/,きりりいにしえ・今輝いて未来発信
7,福島県,7203,郡山市,こおりやまし,37.40055556,140.3597222,https://www.city.koriyama.lg.jp/,東北のウィーン “楽都” 郡山　人と環境のハーモニー 魅力あるまち 郡山
7,福島県,7204,いわき市,いわきし,37.05055556,140.8877778,http://www.city.iwaki.lg.jp/www/index.html,創りたい　ゆたかな明日、伝えたい　誇れるいわき
7,福島県,7205,白河市,しらかわし,37.12638889,140.2108333,http://www.city.shirakawa.fukushima.jp/,人　文化　自然　ともに育む　のびゆく白河
7,福島県,7207,須賀川市,すかがわし,37.28666667,140.3727778,https://www.city.sukagawa.fukushima.jp/,人・自然・地域が輝く臨空都市　すかがわ
7,福島県,7208,喜多方市,きたかたし,37.65111111,139.8744444,https://www.city.kitakata.fukushima.jp/,豊かで元気な農山村と活力ある生活・観光都市
7,福島県,7209,相馬市,そうまし,37.79666667,140.9197222,https://www.city.soma.fukushima.jp/,未来に向かって伸びゆく　福祉と文化の都市そうま
7,福島県,7210,二本松市,にほんまつし,37.58472222,140.4313889,https://www.city.nihonmatsu.lg.jp/,自然の恵み 先人の知恵 いまに息づく文化の香り 「いま拓く 豊かな未来 二本松」
7,福島県,7211,田村市,たむらし,37.44138889,140.5691667,https://www.city.tamura.lg.jp/,あぶくまの人・郷・夢を育むまち～はつらつ高原都市　田村市～
7,福島県,7212,南相馬市,みなみそうまし,37.64222222,140.9572222,https://www.city.minamisoma.lg.jp/,ともにつくる　活力に満ちた　安心で潤いのある南相馬
7,福島県,7213,伊達市,だてし,37.81888889,140.5630556,https://www.city.fukushima-date.lg.jp/,伊達　織りなす未来　ひとつの心
7,福島県,7214,本宮市,もとみやし,37.51333333,140.3938889,https://www.city.motomiya.lg.jp/,水と緑と心が結びあう未来に輝くまち　もとみや
7,福島県,7301,桑折町,こおりまち,37.84944444,140.5163889,https://www.town.koori.fukushima.jp/,献上桃の郷　自然と歴史と文化のふるさと桑折町
7,福島県,7303,国見町,くにみまち,37.87694444,140.5494444,https://www.town.kunimi.fukushima.jp/,くだものと歴史のまち　くにみ
7,福島県,7308,川俣町,かわまたまち,37.665,140.5983333,https://www.town.kawamata.lg.jp/,みどりの中に光る絹のまち～かわまた～
7,福島県,7322,大玉村,おおたまむら,37.53444444,140.3711111,https://www.vill.otama.fukushima.jp/,安達太良山にいだかれた豊かな自然としあわせを大切にするむらづくり
7,福島県,7342,鏡石町,かがみいしまち,37.25277778,140.3436111,https://www.town.kagamiishi.fukushima.jp/,共に生き　共につくる　牧場の朝のまち　鏡石
7,福島県,7344,天栄村,てんえいむら,37.25527778,140.2472222,https://www.vill.tenei.fukushima.jp/,森と湖といで湯の里　健康・観光・ヤーコンの里　天栄
7,福島県,7362,下郷町,しもごうまち,37.25555556,139.8722222,https://www.town.shimogo.fukushima.jp/,いで湯と渓谷の郷　未来につなぐまちづくり 誇れる郷土に広がる交流
7,福島県,7364,檜枝岐村,ひのえまたむら,37.02416667,139.3888889,https://www.vill.hinoemata.lg.jp/,尾瀬のある郷「檜枝岐」
7,福島県,7367,只見町,ただみまち,37.34861111,139.3158333,https://www.town.tadami.lg.jp/,自然首都・只見　緑と水と心のふるさと
7,福島県,7368,南会津町,みなみあいづまち,37.20027778,139.7733333,http://www.minamiaizu.org/,ありがとうのひろがる新しいまち
7,福島県,7402,北塩原村,きたしおばらむら,37.65583333,139.9377778,https://www.vill.kitashiobara.fukushima.jp/,高原・湖　四季の彩り　北塩原
7,福島県,7405,西会津町,にしあいづまち,37.58888889,139.6475,https://www.town.nishiaizu.fukushima.jp/,みんなの声が響くまち にしあいづ
7,福島県,7407,磐梯町,ばんだいまち,37.56194444,139.9883333,https://www.town.bandai.fukushima.jp/,温もりと活力あるまちづくり
7,福島県,7408,猪苗代町,いなわしろまち,37.55777778,140.1047222,https://www.town.inawashiro.fukushima.jp/,人が、自然が、歴史と文化が、そして未来が耀く猪苗代
7,福島県,7421,会津坂下町,あいづばんげまち,37.56138889,139.8216667,https://www.town.aizubange.fukushima.jp/,はな咲く　ばんげ　いにしえ街道　人、まち、夢をつなぎます
7,福島県,7422,湯川村,ゆがわむら,37.56583333,139.8866667,http://www.vill.yugawa.fukushima.jp/,米と文化の里 ゆがわむら
7,福島県,7423,柳津町,やないづまち,37.52611111,139.7194444,http://www.town.yanaizu.fukushima.jp/,いで湯と信仰とスポーツの里　夢と活力があり、豊かさを実感できる町
7,福島県,7444,三島町,みしままち,37.47027778,139.6444444,http://www.town.mishima.fukushima.jp/,桐の里会津三島町
7,福島県,7445,金山町,かねやままち,37.45388889,139.5247222,https://www.town.kaneyama.fukushima.jp/,高齢者を守る福祉の充実した町
7,福島県,7446,昭和村,しょうわむら,37.33583333,139.6105556,http://www.vill.showa.fukushima.jp/,水の流れ、風の香り、緑の大地につつまれた うるおいの里づくり～古代布からむし織の里～
7,福島県,7447,会津美里町,あいづみさとまち,37.46,139.8411111,https://www.town.aizumisato.fukushima.jp/,人が輝き　夢が広がる　環境共生のまち
7,福島県,7461,西郷村,にしごうむら,37.14194444,140.1552778,https://www.vill.nishigo.fukushima.jp/,明るく住みよい活力に満ちた高原公園都市・にしごう
7,福島県,7464,泉崎村,いずみざきむら,37.15694444,140.2952778,https://www.vill.izumizaki.fukushima.jp/,健康で心豊かな福祉の里いずみざき
7,福島県,7465,中島村,なかじまむら,37.14861111,140.3502778,http://www.vill-nakajima.jp/,豊かさを実感できる村　未来に贈ろう緑豊かな田園景観～住みよい・やすらぎ・花の郷～
7,福島県,7466,矢吹町,やぶきまち,37.20111111,140.3386111,http://www.town.yabuki.fukushima.jp/,～みんなで支え創造する私のふるさと～　さわやかな田園のまち・やぶき
7,福島県,7481,棚倉町,たなぐらまち,37.02972222,140.3797222,http://www.town.tanagura.fukushima.jp/,北緯37度　自然・歴史　人が輝く　棚倉町
7,福島県,7482,矢祭町,やまつりまち,36.87138889,140.4247222,http://www.town.yamatsuri.fukushima.jp/,奥州みちのくの旅は ここから始まる。　元気な子どもの声が聞こえるまちづくり
7,福島県,7483,塙町,はなわまち,36.95722222,140.4097222,http://www.town.hanawa.fukushima.jp/,人と自然、文化がふれあう夢のあるまち・はなわ
7,福島県,7484,鮫川村,さめがわむら,37.0425,140.5097222,https://www.vill.samegawa.fukushima.jp/,まめで達者な村づくり　まめな暮らしが育むやすらぎとふれあいの村
7,福島県,7501,石川町,いしかわまち,37.14416667,140.4522222,http://www.town.ishikawa.fukushima.jp/,みんなが主役　協働と循環のまち
7,福島県,7502,玉川村,たまかわむら,37.21083333,140.4088889,https://www.vill.tamakawa.fukushima.jp/,未来へつながる村づくり、“元気な”たまかわ
7,福島県,7503,平田村,ひらたむら,37.21805556,140.5702778,https://www.vill.hirata.fukushima.jp/,青空と緑のふるさと　ひらた
7,福島県,7504,浅川町,あさかわまち,37.08083333,140.4127778,http://www.town.asakawa.fukushima.jp/,住んでよかった　私の町　浅川
7,福島県,7505,古殿町,ふるどのまち,37.08916667,140.5558333,https://www.town.furudono.fukushima.jp/,流鏑馬の里　緑と人が響きあうぬくもりのあるまち　ふるどの
7,福島県,7521,三春町,みはるまち,37.44111111,140.4927778,https://www.town.miharu.fukushima.jp/,今、花ひらく小さな城下町　三春
7,福島県,7522,小野町,おのまち,37.28694444,140.6263889,https://www.town.ono.fukushima.jp/,笑顔とがんばりの町　平安浪漫　小野小町誕生伝説
7,福島県,7541,広野町,ひろのまち,37.21444444,140.9947222,https://www.town.hirono.fukushima.jp/,東北に春を告げるまち
7,福島県,7542,楢葉町,ならはまち,37.2825,140.9936111,https://www.town.naraha.lg.jp/,未来へのキックオフ！光と風のまち・ならは
7,福島県,7543,富岡町,とみおかまち,37.34555556,141.0086111,https://www.tomioka-town.jp/,誇りあふれる　快適環境のまち　さくら富岡
7,福島県,7544,川内村,かわうちむら,37.3375,140.8094444,http://www.kawauchimura.jp/,たのしいね　みんなで育む　元気な村づくり
7,福島県,7545,大熊町,おおくままち,37.40444444,140.9836111,https://www.town.okuma.fukushima.jp/,フルーツの香り漂うロマンの里おおくま
7,福島県,7546,双葉町,ふたばまち,37.44916667,141.0125,https://www.town.fukushima-futaba.lg.jp/,人と心のエネルギー・未来をひらく双葉町
7,福島県,7547,浪江町,なみえまち,37.49472222,141.0008333,https://www.town.namie.fukushima.jp/,なかよく　みんな　えがおで　ともに築こう安心のまち
7,福島県,7548,葛尾村,かつらおむら,37.50361111,140.7644444,https://www.katsurao.org/,人と自然が輝くふれあいの村
7,福島県,7561,新地町,しんちまち,37.87611111,140.9194444,https://www.shinchi-town.jp/,ふれあいと創造の田園都市・しんち
7,福島県,7564,飯舘村,いいたてむら,37.67916667,140.7355556,https://www.vill.iitate.fukushima.jp/,大いなる田舎　までいライフ・いいたて
8,茨城県,8201,水戸市,みとし,36.36583333,140.4713889,https://www.city.mito.lg.jp/,県都にふさわしい風格と安らぎのある 元気都市・水戸
8,茨城県,8202,日立市,ひたちし,36.59916667,140.6516667,https://www.city.hitachi.lg.jp/,生活未来都市・ひたち ～知恵と自然が響き合い、くらしを明日につなぐまち～
8,茨城県,8203,土浦市,つちうらし,36.07194444,140.1961111,https://www.city.tsuchiura.lg.jp/index.html,水・みどり・人がきらめく 安心のまち 活力のまち 土浦
8,茨城県,8204,古河市,こがし,36.17888889,139.7558333,https://www.city.ibaraki-koga.lg.jp/,風格と希望に満ちた“いきいき古河”
8,茨城県,8205,石岡市,いしおかし,36.19083333,140.2872222,https://www.city.ishioka.lg.jp/,古都1300年の歴史と郷の文化に出会える街
8,茨城県,8207,結城市,ゆうきし,36.30527778,139.8775,https://www.city.yuki.lg.jp/,みんなでつくる活気と風情のある快適なまち・結城
8,茨城県,8208,龍ケ崎市,りゅうがさきし,35.91166667,140.1822222,https://www.city.ryugasaki.ibaraki.jp/,共によろこび 共に育てる 健康・教育都市
8,茨城県,8210,下妻市,しもつまし,36.18444444,139.9675,https://www.city.shimotsuma.lg.jp/,輝く自然・あふれるやさしさ・活力みなぎるまち しもつま ～ひとがいきいきかがやくまち～
8,茨城県,8211,常総市,じょうそうし,36.02361111,139.9938889,http://www.city.joso.lg.jp/,健やかにひとを育み、みどり豊かなまちづくり
8,茨城県,8212,常陸太田市,ひたちおおたし,36.53833333,140.5311111,http://www.city.hitachiota.ibaraki.jp/,自然・歴史を活かし、人・地域がかがやく協働のまち
8,茨城県,8214,高萩市,たかはぎし,36.71361111,140.7097222,https://www.city.takahagi.ibaraki.jp/index.html,感性はぐくむ「こころの里City」 たかはぎ
8,茨城県,8215,北茨城市,きたいばらきし,36.80194444,140.7511111,https://www.city.kitaibaraki.lg.jp/,安心 快適 住みたいまち ～人・自然・まち・文化 みんなでつくる北茨城～
8,茨城県,8216,笠間市,かさまし,36.345,140.3041667,https://www.city.kasama.lg.jp/index.html,住みよいまち 訪れてよいまち 笠間 ～みんなで創る文化交流都市～
8,茨城県,8217,取手市,とりでし,35.91138889,140.0502778,https://www.city.toride.ibaraki.jp/,水と緑を育み、美と文化を創る活き活きリビングタウン
8,茨城県,8219,牛久市,うしくし,35.97944444,140.1497222,http://www.city.ushiku.lg.jp/,笑顔があふれ やすらぎのあるまち うしく
8,茨城県,8220,つくば市,つくばし,36.08361111,140.0763889,https://www.city.tsukuba.lg.jp/,わたしのつくばをみつけよう。　人と自然と科学が調和し、安らぎと活力に満ちた“健康で健全なまち・つくば”の創造
8,茨城県,8221,ひたちなか市,ひたちなかし,36.39638889,140.5344444,https://www.city.hitachinaka.lg.jp/,豊かな産業といきいきとした暮らしが広がる 世界とふれあう自立協働都市
8,茨城県,8222,鹿嶋市,かしまし,35.96583333,140.645,https://www.city.kashima.ibaraki.jp/,ときめきホームタウン かしま
8,茨城県,8223,潮来市,いたこし,35.94722222,140.5552778,https://www.city.itako.lg.jp/,豊かな自然 あふれる元気 みんなでつくる水の郷
8,茨城県,8224,守谷市,もりやし,35.95138889,139.9755556,https://www.city.moriya.ibaraki.jp/,豊かな大地に明日の生活と文化を築くまち
8,茨城県,8225,常陸大宮市,ひたちおおみやし,36.5425,140.4108333,https://www.city.hitachiomiya.lg.jp/,豊かな自然と調和した 安心・快適な活力のまち
8,茨城県,8226,那珂市,なかし,36.4575,140.4866667,https://www.city.naka.lg.jp/,人にやさしく文化の香り高いまち
8,茨城県,8227,筑西市,ちくせいし,36.30722222,139.9830556,https://www.city.chikusei.lg.jp/index.html,人と自然 安心して暮らせる 共生文化都市　－市民との協働で進める筑西市の創造－
8,茨城県,8228,坂東市,ばんどうし,36.04833333,139.8888889,http://www.city.bando.lg.jp/,人と自然がおりなす活力・安心・協働にみちた坂東市
8,茨城県,8229,稲敷市,いなしきし,35.95666667,140.3238889,https://www.city.inashiki.lg.jp/index.html,みんなが住みたい素敵なまち
8,茨城県,8230,かすみがうら市,かすみがうらし,36.15194444,140.2372222,https://www.city.kasumigaura.lg.jp/,きらきら いきいき ふれあい育む 豊かなめぐみ野
8,茨城県,8231,桜川市,さくらがわし,36.32722222,140.0905556,http://www.city.sakuragawa.lg.jp/index.html,伝統と豊かな自然に恵まれた田園文化都市 ～やすらぎのまち 桜川～
8,茨城県,8232,神栖市,かみすし,35.89,140.6647222,https://www.city.kamisu.ibaraki.jp/,市民とともにつくる“躍進する中核都市”かみす
8,茨城県,8233,行方市,なめがたし,35.99027778,140.4891667,https://www.city.namegata.ibaraki.jp/,水辺と大地と暮らしぶり自慢の行方市
8,茨城県,8234,鉾田市,ほこたし,36.15861111,140.5163889,https://www.city.hokota.lg.jp/,「いのち」と「くらし」の先進都市　～自然を尊び、農を誇り、喜びを生みだす 21世紀のまち 鉾田～
8,茨城県,8235,つくばみらい市,つくばみらいし,35.96305556,140.0372222,https://www.city.tsukubamirai.lg.jp/,活力に満ちた うるおいとやすらぎのまち
8,茨城県,8236,小美玉市,おみたまし,36.23944444,140.3525,https://www.city.omitama.lg.jp/,人が輝く水と緑の交流都市
8,茨城県,8302,茨城町,いばらきまち,36.28694444,140.4247222,http://www.town.ibaraki.lg.jp/,湖沼を中心に水と緑に恵まれた田園都市　安全・安心で活力あるまち いばらき ～みんなでキャッチボールしてまちづくり～
8,茨城県,8309,大洗町,おおあらいまち,36.31333333,140.575,http://www.town.oarai.lg.jp/,人が輝き・海が育む・ふれあいのまち大洗
8,茨城県,8310,城里町,しろさとまち,36.47916667,140.3763889,https://www.town.shirosato.lg.jp/,人と自然が響きあい ともに輝く住みよいまち
8,茨城県,8341,東海村,とうかいむら,36.47305556,140.5661111,https://www.vill.tokai.ibaraki.jp/,～自然といのち・調和と循環～
8,茨城県,8364,大子町,だいごまち,36.76805556,140.3552778,https://www.town.daigo.ibaraki.jp/,花と緑と若者の住む 互いに支え合う 心豊かなまち
8,茨城県,8442,美浦村,みほむら,36.00444444,140.3019444,https://www.vill.miho.lg.jp/,人と自然が輝く美浦村 ともに生きる人と人、人と自然 地域に育まれた湖岸文化
8,茨城県,8443,阿見町,あみまち,36.03083333,140.215,https://www.town.ami.lg.jp/,人と自然がつくる楽しいまち あみ
8,茨城県,8447,河内町,かわちまち,35.88472222,140.2444444,http://www.town.ibaraki-kawachi.lg.jp/,太陽が光かがやく水とみどりの調和した安心して暮らせるまち
8,茨城県,8521,八千代町,やちよまち,36.18138889,139.8913889,http://www.town.ibaraki-yachiyo.lg.jp/,人・地域・ともに輝く 協働のまち 八千代
8,茨城県,8542,五霞町,ごかまち,36.11444444,139.7452778,https://www.town.goka.lg.jp/,人がきらめき だれもが安心・安全に暮らせるまち 五霞
8,茨城県,8546,境町,さかいまち,36.10861111,139.795,https://www.town.ibaraki-sakai.lg.jp/,水と緑とふれあいの町 さかい
8,茨城県,8564,利根町,とねまち,35.85777778,140.1394444,http://www.town.tone.ibaraki.jp/,みんなの笑顔が輝くまち！
9,栃木県,9201,宇都宮市,うつのみやし,36.55527778,139.8827778,https://www.city.utsunomiya.tochigi.jp/,住めば愉快だ宇都宮　くらしいきいき まちキラキラ つながる人 ・ 夢のみや うつのみや
9,栃木県,9202,足利市,あしかがし,36.34027778,139.4497222,https://www.city.ashikaga.tochigi.jp/,歴史と文化を育み ひとが輝く都市（まち）　あしかが
9,栃木県,9203,栃木市,とちぎし,36.38138889,139.7302778,https://www.city.tochigi.lg.jp/,“自然”“歴史”“地域”“人” それぞれに生み出す流れが大河を創り 悠久の流れが未来を築く 新生・栃木市
9,栃木県,9204,佐野市,さのし,36.31444444,139.5783333,https://www.city.sano.lg.jp/,育み支え合うひとびと 水と緑と万葉の地に広がる交流拠点都市
9,栃木県,9205,鹿沼市,かぬまし,36.56722222,139.745,https://www.city.kanuma.tochigi.jp/,人と自然が調和した“元気なまち・かぬま”
9,栃木県,9206,日光市,にっこうし,36.72,139.6983333,https://www.city.nikko.lg.jp/,四季の彩りに風薫るひかりの郷－自然と歴史と産業が響き合う こころ豊かな輝く未来へ－
9,栃木県,9208,小山市,おやまし,36.31472222,139.8002778,https://www.city.oyama.tochigi.jp/,水と緑と大地のゆたかなまち　夢 大地 きらめき 笑顔 みんなでつくる ふるさと小山
9,栃木県,9209,真岡市,もおかし,36.44027778,140.0130556,https://www.city.moka.lg.jp/,市民だれもが“ほっと”できるまち…真岡～人・自然・産業が調和する安らぎと潤いの交流都市～
9,栃木県,9210,大田原市,おおたわらし,36.87083333,140.0155556,https://www.city.ohtawara.tochigi.jp/,住む人が輝き 来る人がやすらぐ 幸せ度の高いまち
9,栃木県,9211,矢板市,やいたし,36.80666667,139.9241667,https://www.city.yaita.tochigi.jp/,やさしいまち　いきいきとしたまち　たくましいまち　～人・郷土・産業が調和した　つつじの郷・やいた～
9,栃木県,9213,那須塩原市,なすしおばらし,36.96166667,140.0461111,http://www.city.nasushiobara.lg.jp/,人と自然がふれあう　やすらぎのまち　那須塩原
9,栃木県,9214,さくら市,さくらし,36.68527778,139.9663889,https://www.city.tochigi-sakura.lg.jp/,ひとと地域が輝き、明るく温かなまちづくり
9,栃木県,9215,那須烏山市,なすからすやまし,36.65694444,140.1516667,https://www.city.nasukarasuyama.lg.jp/,「自然」と「文化」と「活力」が調和した暮らしやすいまち　みんなの知恵と協働による“ひかり輝く”まちづくり
9,栃木県,9216,下野市,しもつけし,36.38722222,139.8422222,https://www.city.shimotsuke.lg.jp/,思いやりと交流で創る新生文化都市
9,栃木県,9301,上三川町,かみのかわまち,36.43916667,139.91,https://www.town.kaminokawa.lg.jp/,より安心・安全で活力のあるまち 上三川
9,栃木県,9342,益子町,ましこまち,36.4675,140.0930556,http://www.town.mashiko.tochigi.jp/,『創造の器』に 未来かがやく 益子町 ～みんなで築く 手づくりのまち～
9,栃木県,9343,茂木町,もてぎまち,36.53222222,140.1875,https://www.town.motegi.tochigi.jp/,人を活かす、地域を活かす、環境を活かす　強いまちづくり
9,栃木県,9344,市貝町,いちかいまち,36.54333333,140.1022222,https://www.town.ichikai.tochigi.jp/forms/top/top.aspx,暮らしいきいき 心安らぐ 躍進のまち いちかい
9,栃木県,9345,芳賀町,はがまち,36.54805556,140.0580556,https://www.town.tochigi-haga.lg.jp/,みんなで創る やすらぎと豊かさに満ちたまち 芳賀
9,栃木県,9361,壬生町,みぶまち,36.42722222,139.8038889,https://www.town.mibu.tochigi.jp/,活力と創意が生きる　希望に満ちたまち・みぶ
9,栃木県,9364,野木町,のぎまち,36.23305556,139.7408333,http://www.town.nogi.lg.jp/,水と緑と人の和で うるおいのあるまち
9,栃木県,9384,塩谷町,しおやまち,36.7775,139.8505556,https://www.town.shioya.tochigi.jp/,豊かな自然に育まれ 人と人とがつながり 安全安心に暮らせる塩谷町
9,栃木県,9386,高根沢町,たかねざわまち,36.63111111,139.9866667,https://www.town.takanezawa.tochigi.jp/,まちづくりの合言葉は『手間、暇　かけて』
9,栃木県,9407,那須町,なすまち,37.01972222,140.1211111,https://www.town.nasu.lg.jp/,緑と活気にあふれ心ふれあうまち
9,栃木県,9411,那珂川町,なかがわまち,36.73833333,140.1713889,http://www.town.tochigi-nakagawa.lg.jp/,豊かな自然と文化にはぐくまれ　やさしさと活力に満ちたまちづくり
10,群馬県,10201,前橋市,まえばしし,36.38916667,139.0636111,https://www.city.maebashi.gunma.jp/,水と緑と詩（うた）のまち　生命都市いきいき前橋
10,群馬県,10202,高崎市,たかさきし,36.32194444,139.0036111,https://www.city.takasaki.gunma.jp/,交流と創造～輝く高崎
10,群馬県,10203,桐生市,きりゅうし,36.40527778,139.3305556,http://www.city.kiryu.lg.jp/,伝統と創造、粋なまち桐生
10,群馬県,10204,伊勢崎市,いせさきし,36.31138889,139.1966667,https://www.city.isesaki.lg.jp/,20万市民が健康で安心して暮らせる県央都市 いせさき
10,群馬県,10205,太田市,おおたし,36.29166667,139.3758333,https://www.city.ota.gunma.jp/,人と自然にやさしい、笑顔で暮らせるまち太田
10,群馬県,10206,沼田市,ぬまたし,36.64583333,139.0441667,http://www.city.numata.gunma.jp/,森林文化都市、水と緑の大地・田園空間都市
10,群馬県,10207,館林市,たてばやしし,36.245,139.5422222,https://www.city.tatebayashi.gunma.jp/,やすらぎと活力に満ちた公園文化都市
10,群馬県,10208,渋川市,しぶかわし,36.48944444,139.0005556,https://www.city.shibukawa.lg.jp/,日本のまんなか 水と緑といで湯の街 渋川市　やすらぎとふれあいに満ちた“ほっと”なまち
10,群馬県,10209,藤岡市,ふじおかし,36.25861111,139.0747222,https://www.city.fujioka.gunma.jp/,市民が創り輝く やさしい藤岡 ～藤と冬桜が織りなす幸せ実感のまちづくり～
10,群馬県,10210,富岡市,とみおかし,36.26,138.89,https://www.city.tomioka.lg.jp/www/toppage/0000000000000/APM03000.html,人と自然と歴史が織りなす豊かなまち とみおか
10,群馬県,10211,安中市,あんなかし,36.32638889,138.8872222,https://www.city.annaka.lg.jp/,豊かな自然と歴史に包まれて ひとが輝くやすらぎのまち
10,群馬県,10212,みどり市,みどりし,36.39472222,139.2811111,https://www.city.midori.gunma.jp/www/index.html,輝くひと 輝くみどり 豊かな生活創造都市
10,群馬県,10344,榛東村,しんとうむら,36.44027778,138.9813889,http://www.vill.shinto.gunma.jp/,四季元気 あったか榛東　「豊かさを実感し夢と感動を創造する村・榛東」－村民の知恵と協働による自立した村－
10,群馬県,10345,吉岡町,よしおかまち,36.4475,139.0102778,https://www.town.yoshioka.gunma.jp/,人と自然が共生した住みよいまちよしおか
10,群馬県,10366,上野村,うえのむら,36.08333333,138.7772222,http://www.uenomura.jp/,豊かな自然に囲まれた創造の森
10,群馬県,10367,神流町,かんなまち,36.11611111,138.9169444,http://www.town.kanna.gunma.jp/,小さな町の底力！町民主役のまちづくり
10,群馬県,10382,下仁田町,しもにたまち,36.2125,138.7891667,https://www.town.shimonita.lg.jp/,みんなで創ろう、輝く下仁田
10,群馬県,10383,南牧村,なんもくむら,36.15861111,138.7113889,http://www.nanmoku.ne.jp/,きれいな水と、澄み切った大気に包まれた ふるさと南牧村　自然をいかし活気あふれる村づくり
10,群馬県,10384,甘楽町,かんらまち,36.24305556,138.9219444,https://www.town.kanra.lg.jp/,心が通う元気あふれる町
10,群馬県,10421,中之条町,なかのじょうまち,36.59,138.8411111,https://www.town.nakanojo.gunma.jp/,ふるさとに会える町 なかのじょう
10,群馬県,10424,長野原町,ながのはらまち,36.55222222,138.6375,https://www.town.naganohara.gunma.jp/www/index.html,風が好き 人が好き 夢はここから 長野原町　自然と人が輝きあうエコ・ハートなまち長野原
10,群馬県,10425,嬬恋村,つまごいむら,36.51666667,138.5302778,https://www.vill.tsumagoi.gunma.jp/,ともに考え ともにつくろう ほこれる嬬恋「人・環境・笑顔あふれるつまごい21」
10,群馬県,10426,草津町,くさつまち,36.62055556,138.5961111,https://www.town.kusatsu.gunma.jp/,歩み入る者にやすらぎを 去りゆく人にしあわせを　温泉と高原、文化とスポーツの国際温泉リゾート・草津
10,群馬県,10428,高山村,たかやまむら,36.62083333,138.9436111,https://vill.takayama.gunma.jp/,人が輝き、伝統息づく星の里たかやま　誇りと愛情の持てる豊かな村を築くために…
10,群馬県,10429,東吾妻町,ひがしあがつままち,36.57138889,138.8255556,http://www1.town.higashiagatsuma.gunma.jp/,住民が誇りを持って暮らすまち
10,群馬県,10443,片品村,かたしなむら,36.7725,139.2252778,https://www.vill.katashina.gunma.jp/,遥かなる花の谷、微笑みの住む郷、片品村　“小さくても輝く村”を目指して
10,群馬県,10444,川場村,かわばむら,36.69472222,139.1066667,http://www.vill.kawaba.gunma.jp/,都市交流と自然と共生の山村　田園理想郷～農業と自然のさと川場～
10,群馬県,10448,昭和村,しょうわむら,36.63972222,139.0658333,https://www.vill.showa.gunma.jp/,群馬の純情畑　ベジタFull（フル）ガーデン昭和村 －やさいが元気、人にやさしいむらづくり－
10,群馬県,10449,みなかみ町,みなかみまち,36.67888889,138.9991667,https://www.town.minakami.gunma.jp/,森を育み生命を運ぶ、利根川源流の町「みなかみ町」　水と森・歴史と文化に息づく利根川源流の町 みなかみ
10,群馬県,10464,玉村町,たまむらまち,36.30444444,139.115,https://www.town.tamamura.lg.jp/,主役はあなた！ キラリと輝く笑顔のまち・たまむら
10,群馬県,10521,板倉町,いたくらまち,36.22305556,139.6102778,https://www.town.itakura.gunma.jp/,光と水とふれあいの学園都市・板倉
10,群馬県,10522,明和町,めいわまち,36.21138889,139.5341667,https://www.town.meiwa.gunma.jp/,豊かな自然と懐かしい風景が広がる群馬県明和町　水と緑豊かな活力ある明和町
10,群馬県,10523,千代田町,ちよだまち,36.21777778,139.4425,https://www.town.chiyoda.gunma.jp/,自然とふれあう元気でやさしい町
10,群馬県,10524,大泉町,おおいずみまち,36.24777778,139.405,https://www.town.oizumi.gunma.jp/,ゆとりとうるおいのある 新たなふるさと創造の町
10,群馬県,10525,邑楽町,おうらまち,36.2525,139.4625,https://www.town.ora.gunma.jp/,平地林と白鳥の町　やさしさと活気の調和したまち“おうら”
11,埼玉県,11100,さいたま市,さいたまし,35.86166667,139.6452778,https://www.city.saitama.jp/,希望（ゆめ）のまち
11,埼玉県,11101,さいたま市 西区,さいたまし にしく,35.925,139.5797222,https://www.city.saitama.jp/nishi/index.html,豊かな自然と歴史文化を活（い）かす すべての人と生活にやさしい うるおいのあるまちづくり－愛着と誇りを持てる 自立的な地域社会を目指して－
11,埼玉県,11102,さいたま市 北区,さいたまし きたく,35.93083333,139.62,https://www.city.saitama.jp/kita/index.html,私が住みたいまちづくり 市民参加で日々創造
11,埼玉県,11103,さいたま市 大宮区,さいたまし おおみやく,35.90611111,139.6286111,https://www.city.saitama.jp/omiya/index.html,うるおいのある高度な生活基盤と氷川の杜の緑と文化が調和するまち
11,埼玉県,11104,さいたま市 見沼区,さいたまし みぬまく,35.93527778,139.6544444,https://www.city.saitama.jp/minuma/index.html,見沼の自然との共生－私たちがつくり育てる 緑・心・動きあふれる ふるさと 見沼－
11,埼玉県,11105,さいたま市 中央区,さいたまし ちゅうおうく,35.88388889,139.6261111,https://www.city.saitama.jp/chuo/index.html,新しい都市文化の創造と交流（ふれあい）が育てる安心な暮らし
11,埼玉県,11106,さいたま市 桜区,さいたまし さくらく,35.85694444,139.6094444,https://www.city.saitama.jp/sakura/index.html,三世代がつくる元気印のまち－自然あふれる住みよい環境－
11,埼玉県,11107,さいたま市 浦和区,さいたまし うらわく,35.86166667,139.6452778,https://www.city.saitama.jp/urawa/index.html,にぎわいと文教の調和する緑豊かなまち－ワクワク浦和区、わたしの明日をつくるまち、わたしが明日をつくるまち－
11,埼玉県,11108,さいたま市 南区,さいたまし みなみく,35.84638889,139.6480556,https://www.city.saitama.jp/minami/index.html,あなたが主役 住んでよかったまちづくり
11,埼玉県,11109,さいたま市 緑区,さいたまし みどりく,35.87111111,139.6838889,https://www.city.saitama.jp/midori/index.html,ホタル舞い・風かおる緑の街
11,埼玉県,11110,さいたま市 岩槻区,さいたまし いわつきく,35.94972146,139.6941694,https://www.city.saitama.jp/iwatsuki/index.html,自然と歴史、文化を楽しむまち
11,埼玉県,11201,川越市,かわごえし,35.925,139.4858333,https://www.city.kawagoe.saitama.jp/,ひと、まち、未来、みんなでつくる　いきいき川越
11,埼玉県,11202,熊谷市,くまがやし,36.14722222,139.3886111,https://www.city.kumagaya.lg.jp/,川と川　環境共生都市　熊谷
11,埼玉県,11203,川口市,かわぐちし,35.80777778,139.7241667,https://www.city.kawaguchi.lg.jp/,緑 うるおい 人 生き活き 新産業文化都市 川口 ～住みやすく訪れたくなる魅力あるまち～
11,埼玉県,11206,行田市,ぎょうだし,36.13888889,139.4558333,https://www.city.gyoda.lg.jp/,古代から未来へ 夢をつなぐまち ぎょうだ
11,埼玉県,11207,秩父市,ちちぶし,35.99166667,139.0855556,http://www.city.chichibu.lg.jp/,環境立市 秩父　緑風と走ろう 癒しの里 ちちぶ
11,埼玉県,11208,所沢市,ところざわし,35.79944444,139.4688889,https://www.city.tokorozawa.saitama.jp/,ゆとり・うるおい・活力ある生活文化都市
11,埼玉県,11209,飯能市,はんのうし,35.85583333,139.3277778,https://www.city.hanno.lg.jp,共に創る 人と緑かがやくまち
11,埼玉県,11210,加須市,かぞし,36.13138889,139.6019444,https://www.city.kazo.lg.jp/,水と緑と文化の調和した 元気都市
11,埼玉県,11211,本庄市,ほんじょうし,36.24388889,139.1902778,https://www.city.honjo.lg.jp/,あなたが活かす、みんなで育む、安全と安心のまち 本庄 ～ 世のため、後（のち）のため ～
11,埼玉県,11212,東松山市,ひがしまつやまし,36.04222222,139.4,http://www.city.higashimatsuyama.lg.jp/,安心できる暮らしと　豊かな自然を大切にしたまち
11,埼玉県,11214,春日部市,かすかべし,35.97527778,139.7525,https://www.city.kasukabe.lg.jp/,人・自然・産業が調和した快適創造都市　春日部
11,埼玉県,11215,狭山市,さやまし,35.85305556,139.4122222,https://www.city.sayama.saitama.jp/,お茶香るまち 狭山市　緑と健康で豊かな文化都市
11,埼玉県,11216,羽生市,はにゅうし,36.17277778,139.5486111,https://www.city.hanyu.lg.jp/,活力に満ちた ひと輝く文化都市
11,埼玉県,11217,鴻巣市,こうのすし,36.06583333,139.5222222,http://www.city.kounosu.saitama.jp/,花かおり 緑あふれ 人輝くまち こうのす
11,埼玉県,11218,深谷市,ふかやし,36.1975,139.2813889,http://www.city.fukaya.saitama.jp/,夢を育み　明日（あす）に飛翔（ひしょう）する　笑顔都市　ふかや
11,埼玉県,11219,上尾市,あげおし,35.9775,139.5933333,https://www.city.ageo.lg.jp/,みんなでつくる いきいき都市 あげお ～あなたにげんきをおくるまち～
11,埼玉県,11221,草加市,そうかし,35.82555556,139.8055556,http://www.city.soka.saitama.jp/,快適都市　誇れるふるさと草加の創造
11,埼玉県,11222,越谷市,こしがやし,35.89111111,139.7908333,https://www.city.koshigaya.saitama.jp/,水と緑と太陽に恵まれた　ふれあい豊かな自立都市
11,埼玉県,11223,蕨市,わらびし,35.82555556,139.6794444,https://www.city.warabi.saitama.jp/,歓びあふれる交流（ふれあい）のまち　わらび
11,埼玉県,11224,戸田市,とだし,35.8175,139.6777778,https://www.city.toda.saitama.jp/,やさしいまちに、なりたい。　パートナーシップでつくる 人・水・緑 輝くまち とだ
11,埼玉県,11225,入間市,いるまし,35.83583333,139.3911111,http://www.city.iruma.saitama.jp/,香り豊かな緑の文化都市
11,埼玉県,11227,朝霞市,あさかし,35.79722222,139.5936111,https://www.city.asaka.lg.jp/,ふれあいネット アサカ　水と緑に満ちた やすらぎと生きがいのあるまち 朝霞
11,埼玉県,11228,志木市,しきし,35.83666667,139.5802778,https://www.city.shiki.lg.jp/,みんなで創る、みんなのふるさと、輝く志木市
11,埼玉県,11229,和光市,わこうし,35.78138889,139.6058333,http://www.city.wako.lg.jp/,みどり豊かな人間都市、和光
11,埼玉県,11230,新座市,にいざし,35.79333333,139.5652778,https://www.city.niiza.lg.jp/,元気の出る　人と自然が共生する　快適環境都市
11,埼玉県,11231,桶川市,おけがわし,36.00277778,139.5583333,https://www.city.okegawa.lg.jp/,はつらつとした　緑豊かな　市民文化都市　おけがわ
11,埼玉県,11232,久喜市,くきし,36.06222222,139.6669444,https://www.city.kuki.lg.jp/,豊かな未来を創造する個性輝く文化田園都市～人と愛、水と緑、市民主役のまち～
11,埼玉県,11233,北本市,きたもとし,36.02722222,139.5302778,http://www.city.kitamoto.saitama.jp/,緑にかこまれた健康な文化都市
11,埼玉県,11234,八潮市,やしおし,35.82277778,139.8391667,https://www.city.yashio.lg.jp/,市民が育む 品格と活力のあるまち やしお
11,埼玉県,11235,富士見市,ふじみし,35.85666667,139.5491667,https://www.city.fujimi.saitama.jp/,人と自然　ふれあいと思いやりあふれる生活環境都市
11,埼玉県,11237,三郷市,みさとし,35.83027778,139.8725,http://www.city.misato.lg.jp/,きらりとひかる田園都市みさと～人にも企業にも選ばれる魅力的なまち～
11,埼玉県,11238,蓮田市,はすだし,35.99416667,139.6622222,https://www.city.hasuda.saitama.jp/,四季かおる ふれあいと文化を創るまち・蓮田
11,埼玉県,11239,坂戸市,さかどし,35.95722222,139.4030556,https://www.city.sakado.lg.jp/,笑顔でつなぐ躍動のまち、さかど
11,埼玉県,11240,幸手市,さってし,36.07805556,139.7258333,https://www.city.satte.lg.jp/,都市と自然が調和した 安心・安全で活力あるまち 幸手
11,埼玉県,11241,鶴ヶ島市,つるがしまし,35.93444444,139.3930556,https://www.city.tsurugashima.lg.jp/,鶴ヶ島は 元気にする～明日につながる活力のまち 支えあう安心のまち～
11,埼玉県,11242,日高市,ひだかし,35.90777778,139.3391667,https://www.city.hidaka.lg.jp/,笑顔と元気を　未来（あした）へつなぐ　緑きらめくまち　日高
11,埼玉県,11243,吉川市,よしかわし,35.89111111,139.8413889,https://www.city.yoshikawa.saitama.jp/,ひとに優しさ　まちに安らぎ　未来に夢ある　みんなのよしかわ　-市民主役の都市構想-
11,埼玉県,11245,ふじみ野市,ふじみのし,35.87944444,139.5197222,https://www.city.fujimino.saitama.jp/,自信と誇り そして愛着のあるまち　ふじみ野
11,埼玉県,11246,白岡市,しらおかし,36.01888889,139.6769444,http://www.city.shiraoka.lg.jp/,ほっとスマイル しらおか 未来へつながるまち ～うるおいとやすらぎの生活未来都市～
11,埼玉県,11301,伊奈町,いなまち,36,139.6238889,https://www.town.saitama-ina.lg.jp/,バラのまち伊奈町　自然と調和した、ふれあい・安心安全・住みよいまち
11,埼玉県,11324,三芳町,みよしまち,35.82833333,139.5266667,https://www.town.saitama-miyoshi.lg.jp/,みんながつくる みどり いきいき ぬくもりのまち
11,埼玉県,11326,毛呂山町,もろやままち,35.94166667,139.3161111,http://www.town.moroyama.saitama.jp/www/index.html,緑とふれあいの文化都市　もろやま
11,埼玉県,11327,越生町,おごせまち,35.96444444,139.2941667,http://www.town.ogose.saitama.jp/,みどりとせせらぎのまち・おごせ～自然と育む ひと・まち・くらし
11,埼玉県,11341,滑川町,なめがわまち,36.06611111,139.3608333,http://www.town.namegawa.lg.jp/,人と自然の共生　愛ふるタウン滑川
11,埼玉県,11342,嵐山町,らんざんまち,36.05666667,139.3202778,https://www.town.ranzan.saitama.jp/,未来への風を彩る蝶の里　緑園都市らんざん
11,埼玉県,11343,小川町,おがわまち,36.05666667,139.2619444,https://www.town.ogawa.saitama.jp/,和紙のふるさ　自然を愛し、人が輝き、未来を拓く活力あるまち
11,埼玉県,11346,川島町,かわじままち,35.98138889,139.4816667,https://www.town.kawajima.saitama.jp/,輝く未来へ　新しい風を求めて　川島町
11,埼玉県,11347,吉見町,よしみまち,36.04,139.4538889,http://www.town.yoshimi.saitama.jp/,みんなで創る、みどりと笑顔があふれるまち
11,埼玉県,11348,鳩山町,はとやままち,35.98166667,139.3341667,http://www.town.hatoyama.saitama.jp/,環のまち はとやま　～花と木と笑顔でつなぐ、安心で魅力的なまち～
11,埼玉県,11349,ときがわ町,ときがわまち,36.00861111,139.2969444,https://www.town.tokigawa.lg.jp/forms/top/top.aspx,人と自然の優しさにふれるまち＜木の温もりと川のせせらぎを礎とした文化の創造＞
11,埼玉県,11361,横瀬町,よこぜまち,35.98722222,139.1002778,https://www.town.yokoze.saitama.jp/,緑と風が奏でる こころ和むまち　うららかよこぜ
11,埼玉県,11362,皆野町,みなのまち,36.07083333,139.0988889,https://www.town.minano.saitama.jp/,山あいの町・みんなの町　皆野町　“夢を育める安全で安心な快適なまちをめざして”
11,埼玉県,11363,長瀞町,ながとろまち,36.11472222,139.11,http://www.town.nagatoro.saitama.jp/,はつらつ長瀞
11,埼玉県,11365,小鹿野町,おがのまち,36.01722222,139.0086111,https://www.town.ogano.lg.jp/,人と自然が共に輝く活気あふれる町　花と歌舞伎と名水の町
11,埼玉県,11369,東秩父村,ひがしちちぶむら,36.05805556,139.1947222,https://www.vill.higashichichibu.saitama.jp/,和紙の里ひがしちちぶ
11,埼玉県,11381,美里町,みさとまち,36.17722222,139.1813889,http://www.town.saitama-misato.lg.jp/,美しい里の町　美しい自然と田園風景、活力ある交流の里
11,埼玉県,11383,神川町,かみかわまち,36.21388889,139.1019444,https://www.town.kamikawa.saitama.jp/,水と緑そして人が織りなす豊かなまち －安らぎとゆとりのある大地を目指して－
11,埼玉県,11385,上里町,かみさとまち,36.25194444,139.1447222,http://www.town.kamisato.saitama.jp/,人と自然が響きあう“ハーモニーガーデン上里”
11,埼玉県,11408,寄居町,よりいまち,36.11833333,139.1930556,https://www.town.yorii.saitama.jp/,自然と産業が調和する創造のまち　寄居
11,埼玉県,11442,宮代町,みやしろまち,36.0225,139.7227778,https://www.town.miyashiro.lg.jp/,eYAKUBA 電脳みやしろ　－水面に映える文化都市－
11,埼玉県,11464,杉戸町,すぎとまち,36.02555556,139.7366667,https://www.town.sugito.lg.jp/,人も緑も彩りあざやかに～みんなでつくる　やさしさと豊かさのあるまち
11,埼玉県,11465,松伏町,まつぶしまち,35.92583333,139.8152778,http://www.town.matsubushi.lg.jp/,笑顔と夢が花咲く、緑あふれるみんなのまち！
12,千葉県,12100,千葉市,ちばし,35.60722222,140.1063889,https://www.city.chiba.jp/,人とまち　いきいきと幸せに輝く都市
12,千葉県,12101,千葉市 中央区,ちばし ちゅうおうく,35.60888889,140.1247222,https://www.city.chiba.jp/chuo/index.html,うるおいと活気に満ちた　文化の香り高いまち　中央区
12,千葉県,12102,千葉市 花見川区,ちばし はなみがわく,35.66277778,140.0691667,https://www.city.chiba.jp/hanamigawa/index.html,川と緑の魅力が活きる　心と心の通うまち　花見川区
12,千葉県,12103,千葉市 稲毛区,ちばし いなげく,35.63638889,140.1072222,https://www.city.chiba.jp/inage/index.html,自然をはぐくみ　皆が交流する　文教のまち　稲毛区
12,千葉県,12104,千葉市 若葉区,ちばし わかばく,35.63416667,140.1555556,https://www.city.chiba.jp/wakaba/index.html,豊かな自然と歴史と文化にはぐくまれた　ふれあいのまち　若葉区
12,千葉県,12105,千葉市 緑区,ちばし みどりく,35.56027778,140.1763889,https://www.city.chiba.jp/midori/index.html,みずみずしい自然と暖かい心に包まれた　次世代に誇れるまち　緑区
12,千葉県,12106,千葉市 美浜区,ちばし みはまく,35.64027778,140.0630556,https://www.city.chiba.jp/mihama/index.html,浜辺の魅力と国際性にあふれ 安心して暮らせる夢あるまち　美浜区
12,千葉県,12202,銚子市,ちょうしし,35.73472222,140.8266667,https://www.city.choshi.chiba.jp/,ひとがときめき 海がきらめき 未来輝く都市（まち）
12,千葉県,12203,市川市,いちかわし,35.72194444,139.9311111,https://www.city.ichikawa.lg.jp/,ともに築く　自然とやさしさがあふれる　文化のまち　いちかわ
12,千葉県,12204,船橋市,ふなばしし,35.69472222,139.9825,https://www.city.funabashi.lg.jp/,生き生きとしたふれあいの都市・ふなばし
12,千葉県,12205,館山市,たてやまし,34.99666667,139.87,https://www.city.tateyama.chiba.jp/,輝く人・美しい自然　元気なまち館山
12,千葉県,12206,木更津市,きさらづし,35.37611111,139.9169444,https://www.city.kisarazu.lg.jp/,ひとにやさしく 環境と調和し 誇りに満ちた創造のまち　きさらづ
12,千葉県,12207,松戸市,まつどし,35.78777778,139.9030556,https://www.city.matsudo.chiba.jp/,住んでよいまち 訪ねてよいまち まつど　次代を担う子どもたちのふるさと・緑花清流による松戸の創生
12,千葉県,12208,野田市,のだし,35.955,139.8747222,https://www.city.noda.chiba.jp/,市民が創るふれあいのまち野田－活力とみどりゆたかな文化福祉都市
12,千葉県,12210,茂原市,もばらし,35.42833333,140.2880556,https://www.city.mobara.chiba.jp/,育てよう！笑顔と自然と文化のまちを　まもり・そだて・つたえよう 人・自然・文化のかがやき
12,千葉県,12211,成田市,なりたし,35.77666667,140.3183333,https://www.city.narita.chiba.jp/,空港（そら）、交流（ふれあい）、希望（ゆめ）　創造都市 成田
12,千葉県,12212,佐倉市,さくらし,35.72388889,140.2238889,https://www.city.sakura.lg.jp/,歴史　自然　文化のまち　～「佐倉」への思いをかたちに～
12,千葉県,12213,東金市,とうがねし,35.56,140.3661111,https://www.city.togane.chiba.jp/,人・自然・ときめき交感都市　東金
12,千葉県,12215,旭市,あさひし,35.72027778,140.6466667,http://www.city.asahi.lg.jp/,ひとが輝き海とみどりがつくる健康都市“旭”　～日本一住みよいまちを目指して～
12,千葉県,12216,習志野市,ならしのし,35.68083333,140.0266667,https://www.city.narashino.lg.jp/,市民一人ひとりが夢と輝きをもって自己実現できる都市（まち）習志野
12,千葉県,12217,柏市,かしわし,35.86805556,139.9763889,https://www.city.kashiwa.lg.jp/,みんなでつくる安心、希望、支え合いのまち 柏
12,千葉県,12218,勝浦市,かつうらし,35.1525,140.3211111,https://www.city.katsuura.lg.jp/forms/top/top.aspx,海と緑と人がともに歩むまち “元気いっぱい かつうら”
12,千葉県,12219,市原市,いちはらし,35.49805556,140.1155556,https://www.city.ichihara.chiba.jp/,ともに輝く 元気なふるさと いちはら
12,千葉県,12220,流山市,ながれやまし,35.85611111,139.9025,https://www.city.nagareyama.chiba.jp/,都心から一番近い森の街　豊かな自然や歴史・文化を活かし、市民が真の豊かさを実感できるまち「みんなでつくろう価値ある流山」
12,千葉県,12221,八千代市,やちよし,35.7225,140.0997222,http://www.city.yachiyo.chiba.jp/,快適な生活環境とやすらぎに満ちた都市　八千代
12,千葉県,12222,我孫子市,あびこし,35.86416667,140.0283333,https://www.city.abiko.chiba.jp/,手賀沼のほとり 心輝くまち ～人・鳥・文化のハーモニー～
12,千葉県,12223,鴨川市,かもがわし,35.11416667,140.0988889,http://www.city.kamogawa.lg.jp/,自然と歴史を活かした観光・交流都市 ～みんなで創る光り輝くふるさとをめざして～
12,千葉県,12224,鎌ケ谷市,かまがやし,35.77694444,140.0008333,https://www.city.kamagaya.chiba.jp/,緑とふれあいのあるふるさと 鎌ケ谷
12,千葉県,12225,君津市,きみつし,35.33055556,139.9025,https://www.city.kimitsu.lg.jp/,自然と個性の豊かな活力に満ちた都市
12,千葉県,12226,富津市,ふっつし,35.30416667,139.8569444,https://www.city.futtsu.lg.jp/,躍動とにぎわい 安らぎとふれあいの交差するまち ふっつ
12,千葉県,12227,浦安市,うらやすし,35.65361111,139.9016667,http://www.city.urayasu.lg.jp/,人が輝き躍動するまち・浦安
12,千葉県,12228,四街道市,よつかいどうし,35.67,140.1683333,https://www.city.yotsukaido.chiba.jp/,ひかりあふれ　笑顔が明日（あす）をつむぐまち
12,千葉県,12229,袖ケ浦市,そでがうらし,35.43,139.9547222,https://www.city.sodegaura.lg.jp/,「自立と協働のまち」　人いきいき、緑さわやか、活力あふれる袖ケ浦
12,千葉県,12230,八街市,やちまたし,35.66583333,140.3183333,https://www.city.yachimata.lg.jp/,ひと・まち・みどりが輝く ヒューマンフィールドやちまた
12,千葉県,12231,印西市,いんざいし,35.83222222,140.1458333,https://www.city.inzai.lg.jp/,ひと まち 自然 活気と希望あふれる 北総の中核都市　人と自然が笑顔でつながるまち－いんざい
12,千葉県,12232,白井市,しろいし,35.79166667,140.0563889,http://www.city.shiroi.chiba.jp/toppage.html,市民と築く安心で健康なまち しろい
12,千葉県,12233,富里市,とみさとし,35.72666667,140.3430556,https://www.city.tomisato.lg.jp/,人と緑が調和し 未来を拓く臨空都市 とみさと
12,千葉県,12234,南房総市,みなみぼうそうし,35.04333333,139.8402778,https://www.city.minamiboso.chiba.jp/,ひと・ゆめ・みらい 地域で創る魅力の郷 南房総
12,千葉県,12235,匝瑳市,そうさし,35.70777778,140.5644444,https://www.city.sosa.lg.jp/,海・みどり・ひとがはぐくむ 活力あるまち 匝瑳市
12,千葉県,12236,香取市,かとりし,35.89777778,140.4991667,https://www.city.katori.lg.jp/,元気と笑顔があふれるまち　一人ひとりの市民が輝く 活力みなぎる やすらぎの郷 香取
12,千葉県,12237,山武市,さんむし,35.60277778,140.4136111,https://www.city.sammu.lg.jp/,誰もがしあわせを実感できる独立都市 さんむ
12,千葉県,12238,いすみ市,いすみし,35.25388889,140.3852778,http://www.city.isumi.lg.jp/,人と自然の輝く　健康・文化都市　いすみ
12,千葉県,12239,大網白里市,おおあみしらさとし,35.52166667,140.3211111,http://www.city.oamishirasato.lg.jp/,未来に向けて みんなでつくろう！ 住みたい・住み続けたいまち
12,千葉県,12322,酒々井町,しすいまち,35.725,140.2694444,https://www.town.shisui.chiba.jp/,人と自然と文化が奏でるしあわせハーモニー・酒々井
12,千葉県,12329,栄町,さかえまち,35.84083333,140.2438889,http://www.town.sakae.chiba.jp/,水と緑の田園観光都市　～きらめきのなかで笑いがこだまし未来（あす）をうるおすまち～
12,千葉県,12342,神崎町,こうざきまち,35.90166667,140.4052778,https://www.town.kozaki.chiba.jp/,自然と人とふれあいのまち 神崎町　発酵の里・健康笑顔のまち こうざき ―みんなで創る 健康・安心・子育て応援のまち―
12,千葉県,12347,多古町,たこまち,35.73555556,140.4677778,https://www.town.tako.chiba.jp/,人・文化・自然 みんなでつくる 潤いのまち 多古
12,千葉県,12349,東庄町,とうのしょうまち,35.83722222,140.6688889,https://www.town.tohnosho.chiba.jp/,「躍動・連携・地域力 とうのしょう」　～共に築き合う 地域の力がみなぎるまち～
12,千葉県,12403,九十九里町,くじゅうくりまち,35.535,140.4405556,https://www.town.kujukuri.chiba.jp/,人、自然、風土が活きる 海浜文化都市 九十九里
12,千葉県,12409,芝山町,しばやままち,35.69305556,140.4141667,https://www.town.shibayama.lg.jp/,活力ある 緑の大地と空がふれあうまち・芝山
12,千葉県,12410,横芝光町,よこしばひかりまち,35.66555556,140.5041667,https://www.town.yokoshibahikari.chiba.jp/,栗山川の流れがはぐくむ　人・自然・文化が共生するまち　～協働のまちづくり～
12,千葉県,12421,一宮町,いちのみやまち,35.37277778,140.3688889,https://www.town.ichinomiya.chiba.jp/,躍動する緑と海と太陽のまち
12,千葉県,12422,睦沢町,むつざわまち,35.36111111,140.3191667,http://www.town.mutsuzawa.chiba.jp/,きれいな水 豊かな土 支えあう人の和で築く ふるさと むつざわ
12,千葉県,12423,長生村,ちょうせいむら,35.41222222,140.3541667,https://www.vill.chosei.chiba.jp/,未来へつなぐ健康で平和な村：長生
12,千葉県,12424,白子町,しらこまち,35.45444444,140.3744444,https://www.town.shirako.lg.jp/,笑顔、創意、夢のあるまち　しらこ
12,千葉県,12426,長柄町,ながらまち,35.43111111,140.2269444,https://www.town.nagara.chiba.jp/,水が輝き、緑が輝き、そして笑顔が輝く、ヒューマンリゾート ながら
12,千葉県,12427,長南町,ちょうなんまち,35.38666667,140.2372222,https://www.town.chonan.chiba.jp/,自然が誇り、住むことが誇り、元気な町 長南
12,千葉県,12441,大多喜町,おおたきまち,35.285,140.2455556,https://www.town.otaki.chiba.jp/,芳しき歴史、香しき自然、風薫るロマンのまち　城と緑とやさしさに彩られた生命（いのち）輝くよろこびのまち・大多喜
12,千葉県,12443,御宿町,おんじゅくまち,35.19166667,140.3486111,http://www.town.onjuku.chiba.jp/,自然の恵みを継承し、心やすらぎ、未来へ躍動する夢多きまちづくり
12,千葉県,12463,鋸南町,きょなんまち,35.11111111,139.8355556,https://www.town.kyonan.chiba.jp/,みんなでつくる 三ツ星のふるさと・鋸南
13,東京都,13101,千代田区,ちよだく,35.69388889,139.7536111,https://www.city.chiyoda.lg.jp/,都心の魅力にあふれ、文化と伝統が息づくまち千代田
13,東京都,13102,中央区,ちゅうおうく,35.67083333,139.7722222,https://www.city.chuo.lg.jp/,生涯躍動へ 都心再生 ― 個性がいきる ひととまち
13,東京都,13103,港区,みなとく,35.65805556,139.7516667,https://www.city.minato.tokyo.jp/,やすらぎある世界都心・MINATO －誰もが誇りに思えるまち・港区－
13,東京都,13104,新宿区,しんじゅくく,35.69388889,139.7036111,https://www.city.shinjuku.lg.jp/,「新宿力」で創造する、やすらぎとにぎわいのまち
13,東京都,13105,文京区,ぶんきょうく,35.70805556,139.7522222,https://www.city.bunkyo.lg.jp/,歴史と文化と緑に育まれた、みんなが主役のまち「文（ふみ）の京（みやこ）」
13,東京都,13106,台東区,たいとうく,35.71277778,139.78,https://www.city.taito.lg.jp/,にぎわい いきいき したまち台東
13,東京都,13107,墨田区,すみだく,35.71055556,139.8016667,https://www.city.sumida.lg.jp/,～水と歴史のハーモニー～ 人が輝く いきいき すみだ
13,東京都,13108,江東区,こうとうく,35.67305556,139.8172222,https://www.city.koto.lg.jp/,みんなでつくる伝統、未来　水彩都市・江東区
13,東京都,13109,品川区,しながわく,35.60888889,139.7302778,https://www.city.shinagawa.tokyo.jp/,輝く笑顔 住み続けたいまち しながわ
13,東京都,13110,目黒区,めぐろく,35.64138889,139.6983333,https://www.city.meguro.tokyo.jp/,住みたいまち、住み続けたいまち目黒　ともにつくる みどり豊かな 人間のまち
13,東京都,13111,大田区,おおたく,35.56138889,139.7161111,https://www.city.ota.tokyo.jp/,地域力が区民の暮らしを支え、未来へ躍動する国際都市 おおた
13,東京都,13112,世田谷区,せたがやく,35.64611111,139.6530556,https://www.city.setagaya.lg.jp/index.html,いつまでも住み続けたい「魅力あふれる　安全・安心のまち世田谷」
13,東京都,13113,渋谷区,しぶやく,35.66388889,139.6980556,https://www.city.shibuya.tokyo.jp/,創意あふれる生活文化都市‐渋谷 ～自然と文化とやすらぎのまち～
13,東京都,13114,中野区,なかのく,35.7075,139.6638889,https://www.city.tokyo-nakano.lg.jp/,多彩なまちの魅力と支えあう区民の力
13,東京都,13115,杉並区,すぎなみく,35.69944444,139.6363889,https://www.city.suginami.tokyo.jp/,歩きながら、元気と文化が生まれる街。すぎなみ
13,東京都,13116,豊島区,としまく,35.73222222,139.7155556,https://www.city.toshima.lg.jp/index.html,文化と品格を誇れる価値あるまち
13,東京都,13117,北区,きたく,35.75277778,139.7336111,https://www.city.kita.tokyo.jp/,ともにつくり未来につなぐ ときめきのまち － 人と水とみどりの美しいふるさと北区
13,東京都,13118,荒川区,あらかわく,35.73611111,139.7833333,https://www.city.arakawa.tokyo.jp/,区政は区民を幸せにするシステム　幸福実感都市 あらかわ
13,東京都,13119,板橋区,いたばしく,35.75111111,139.7094444,https://www.city.itabashi.tokyo.jp/,いきいき暮らす緑と文化のまち“板橋”
13,東京都,13120,練馬区,ねりまく,35.73555556,139.6522222,https://www.city.nerima.tokyo.jp/,ともに築き 未来へつなぐ 人とみどりが輝く わがまち練馬
13,東京都,13121,足立区,あだちく,35.775,139.8047222,https://www.city.adachi.tokyo.jp/,「美しいまち」は「安全なまち」　協働で築く力強い足立区の実現
13,東京都,13122,葛飾区,かつしかく,35.74333333,139.8472222,http://www.city.katsushika.lg.jp/,水と緑ゆたかな心ふれあう住みよいまち
13,東京都,13123,江戸川区,えどがわく,35.70666667,139.8683333,https://www.city.edogawa.tokyo.jp/,共育・協働・安心　創造性豊かな文化はぐくむ 水辺と緑かがやく 安心と活力ある 生きる喜びを実感できる都市
13,東京都,13201,八王子市,はちおうじし,35.66666667,139.3158333,https://www.city.hachioji.tokyo.jp/,人とひと、人と自然が共生し、だれもが活き活き生きるまち
13,東京都,13202,立川市,たちかわし,35.71388888,139.4077778,https://www.city.tachikawa.lg.jp/,心のかよう緑豊かな健康都市　立川
13,東京都,13203,武蔵野市,むさしのし,35.71777778,139.5661111,http://www.city.musashino.lg.jp/,―都市の窓を開こう、新しい家族を育てよう、持続可能な社会をつくろう―
13,東京都,13204,三鷹市,みたかし,35.68333333,139.5594444,https://www.city.mitaka.lg.jp/,緑と水の公園都市
13,東京都,13205,青梅市,おうめし,35.78777778,139.2758333,https://www.city.ome.tokyo.jp/,みどりと清流、歴史と文化、ふれあいと活力のまち　青梅　－ゆめ・うめ・おうめ－
13,東京都,13206,府中市,ふちゅうし,35.66888889,139.4777778,https://www.city.fuchu.tokyo.jp/,心ふれあう　緑ゆたかな　住みよいまち
13,東京都,13207,昭島市,あきしまし,35.70555556,139.3536111,https://www.city.akishima.lg.jp/,人・まち・緑の共生都市　あきしま
13,東京都,13208,調布市,ちょうふし,35.65055556,139.5408333,https://www.city.chofu.tokyo.jp/www/toppage/0000000000000/APM03000.html,みんながつくる・笑顔輝くまち調布
13,東京都,13209,町田市,まちだし,35.54861111,139.4466667,https://www.city.machida.tokyo.jp/,市民すべてが希望の持てるまち
13,東京都,13210,小金井市,こがねいし,35.69944444,139.5030556,https://www.city.koganei.lg.jp/,みどりが萌える・子どもが育つ・きずなを結ぶ 小金井市
13,東京都,13211,小平市,こだいらし,35.72861111,139.4775,https://www.city.kodaira.tokyo.jp/,躍動をかたちに　進化するまち　こだいら
13,東京都,13212,日野市,ひのし,35.67138889,139.395,http://www.city.hino.lg.jp/,住みいい・ここちいい・いきいきのまち　日野
13,東京都,13213,東村山市,ひがしむらやまし,35.75472222,139.4686111,https://www.city.higashimurayama.tokyo.jp/,人と人 人とみどりが響きあい 笑顔あふれる 東村山
13,東京都,13214,国分寺市,こくぶんじし,35.71083333,139.4622222,http://www.city.kokubunji.tokyo.jp/,緑あふれる武蔵野の、天平の史跡のまち　健康で文化的な都市－住み続けたいまち、ふるさと国分寺－
13,東京都,13215,国立市,くにたちし,35.68388889,139.4413889,https://www.city.kunitachi.tokyo.jp/,文教都市くにたち　人間を大切にするまち
13,東京都,13218,福生市,ふっさし,35.73861111,139.3266667,https://www.city.fussa.tokyo.jp/,このまちが好き　夢かなうまち　福生
13,東京都,13219,狛江市,こまえし,35.63472222,139.5786111,https://www.city.komae.tokyo.jp/,私たちがつくる水と緑のまち　水と緑の住宅都市
13,東京都,13220,東大和市,ひがしやまとし,35.74555556,139.4266667,https://www.city.higashiyamato.lg.jp/,人と自然が調和した生活文化都市 東大和
13,東京都,13221,清瀬市,きよせし,35.78583333,139.5263889,https://www.city.kiyose.lg.jp/,手をつなぎ、心をつむぐ、みどりの清瀬
13,東京都,13222,東久留米市,ひがしくるめし,35.75805556,139.5297222,https://www.city.higashikurume.lg.jp/,自然とつながり活力あるまち 東久留米
13,東京都,13223,武蔵村山市,むさしむらやまし,35.75472222,139.3875,http://www.city.musashimurayama.lg.jp/,人と緑が織りなす 夢ひろがる やさしいまち むさしむらやま
13,東京都,13224,多摩市,たまし,35.63694444,139.4463889,https://www.city.tama.lg.jp/,市民(わたし)が主役のまち・多摩　～夢と希望をかなえる“手づくり”ステージのまち～
13,東京都,13225,稲城市,いなぎし,35.63805556,139.5047222,https://www.city.inagi.tokyo.jp/,緑につつまれ 友愛に満ちた 市民のまち 稲城
13,東京都,13227,羽村市,はむらし,35.76722222,139.3111111,https://www.city.hamura.tokyo.jp/,ひとが輝き みんなでつくる 安心と活力のまち はむら
13,東京都,13228,あきる野市,あきるのし,35.72888889,139.2941667,https://www.city.akiruno.tokyo.jp/,人と緑の新創造都市
13,東京都,13229,西東京市,にしとうきょうし,35.72583333,139.5386111,https://www.city.nishitokyo.lg.jp/,やさしさとふれあいの西東京に暮らし、まちを楽しむ
13,東京都,13303,瑞穂町,みずほまち,35.77194444,139.3538889,https://www.town.mizuho.tokyo.jp/,みらいに ずっと ほこれるまち　潤いあふれ、活力みなぎる地域社会をめざして
13,東京都,13305,日の出町,ひのでまち,35.74222222,139.2575,https://www.town.hinode.tokyo.jp/,太陽とみどりのまち
13,東京都,13307,檜原村,ひのはらむら,35.72694444,139.1488889,https://www.vill.hinohara.tokyo.jp/,みどり せせらぎ 風の音 Tokyo 檜原村（ひのはらむら）　森と清流を蘇らせ 未来に誇れる活力のある村
13,東京都,13308,奥多摩町,おくたままち,35.80972222,139.0963889,http://www.town.okutama.tokyo.jp/,巨樹と清流のまち、おくたま
13,東京都,13361,大島町,おおしままち,34.75,139.3558333,https://www.town.oshima.tokyo.jp/,人と人、自然とひととが共生したみどり豊かな快適環境のまち
13,東京都,13362,利島村,としまむら,34.52944444,139.2822222,http://www.toshimamura.org/,日本一の椿島
13,東京都,13363,新島村,にいじまむら,34.37694444,139.2572222,https://www.niijima.com/,海に向かって拓く島
13,東京都,13364,神津島村,こうづしまむら,34.20555556,139.1347222,https://vill.kouzushima.tokyo.jp/,豊かな海の幸と太陽に輝く緑のめぐみを受け永遠に明るく住みよい村
13,東京都,13381,三宅村,みやけむら,34.07583333,139.4797222,https://www.vill.miyake.tokyo.jp/,三宅村公式ウェブサイト。暮らしの情報、観光・物産情報、行政データやイベントなどをお知らせします。
13,東京都,13382,御蔵島村,みくらじまむら,33.89722222,139.5958333,http://www.mikurasima.jp/,水と緑の島
13,東京都,13401,八丈町,はちじょうまち,33.10944444,139.7908333,https://www.town.hachijo.tokyo.jp/,花と緑と温泉の島
13,東京都,13402,青ヶ島村,あおがしまむら,32.46694444,139.7633333,http://www.vill.aogashima.tokyo.jp/,心あたたか元気な青ヶ島・21世紀ユートピア丸青ヶ島を目指して
13,東京都,13421,小笠原村,おがさわらむら,27.09444444,142.1919444,https://www.vill.ogasawara.tokyo.jp/,ずっと住み続けたい島 もう一度行ってみたい島
14,神奈川県,14100,横浜市,よこはまし,35.44416667,139.6380556,https://www.city.yokohama.lg.jp/,「つながるしあわせ」～安心と活力があふれるまち・横浜～
14,神奈川県,14101,横浜市 鶴見区,よこはまし つるみく,35.50833333,139.6825,https://www.city.yokohama.lg.jp/tsurumi/,笑顔でこころを「つたえる・つうじる・つなげる 」鶴見のまちづくり
14,神奈川県,14102,横浜市 神奈川区,よこはまし かながわく,35.47694444,139.6294444,https://www.city.yokohama.lg.jp/kanagawa/,神奈川区の豊かな地域資産と地域力を活かし、「うるおい」と「にぎわい」を次世代につなげます
14,神奈川県,14103,横浜市 西区,よこはまし にしく,35.45361111,139.6169444,https://www.city.yokohama.lg.jp/nishi/,つながりを大切に 住み続けたいまち 西区へ
14,神奈川県,14104,横浜市 中区,よこはまし なかく,35.44472222,139.6422222,https://www.city.yokohama.lg.jp/naka/,ハマの風、中区から　住みやすく、居心地のよいまちづくり　安心なまち 安全なまち 元気な中区
14,神奈川県,14105,横浜市 南区,よこはまし みなみく,35.43138889,139.6088889,https://www.city.yokohama.lg.jp/minami/,南のかぜはあったかい　区民との協働で「あったかい」まちをつくります
14,神奈川県,14106,横浜市 保土ケ谷区,よこはまし ほどがやく,35.46,139.5961111,https://www.city.yokohama.lg.jp/hodogaya/,いつまでも住み続けたいまち　保土ケ谷
14,神奈川県,14107,横浜市 磯子区,よこはまし いそごく,35.40222222,139.6188889,https://www.city.yokohama.lg.jp/isogo/,「地域力・区民力の発揮」のため「つながり・場・人」づくりに取り組みます
14,神奈川県,14108,横浜市 金沢区,よこはまし かなざわく,35.3375,139.6244444,https://www.city.yokohama.lg.jp/kanazawa/,「海と緑のハーモニータウン金沢」を区民との協働で「優しさと思いやり」あふれるまちにします。
14,神奈川県,14109,横浜市 港北区,よこはまし こうほくく,35.51888889,139.6330556,https://www.city.yokohama.lg.jp/kohoku/,暮らしやすく活気にあふれる”ふるさと港北”を区民とともにつくります
14,神奈川県,14110,横浜市 戸塚区,よこはまし とつかく,35.39638889,139.5325,https://www.city.yokohama.lg.jp/totsuka/,ともに つながる 活気（かっき）ある とつか
14,神奈川県,14111,横浜市 港南区,よこはまし こうなんく,35.40055556,139.5913889,https://www.city.yokohama.lg.jp/konan/,「誰もが安心して暮らせるまち」「行政サービスを正確、親切に提供する区役所」
14,神奈川県,14112,横浜市 旭区,よこはまし あさひく,35.47472222,139.5447222,https://www.city.yokohama.lg.jp/asahi/,「安心して、健やかに、暮らし続けられる わがまち・ふるさと旭区」を目指します。
14,神奈川県,14113,横浜市 緑区,よこはまし みどりく,35.5125,139.5380556,https://www.city.yokohama.lg.jp/midori/,安全・安心、みんなにやさしいまちづくり
14,神奈川県,14114,横浜市 瀬谷区,よこはまし せやく,35.46638889,139.4991667,https://www.city.yokohama.lg.jp/seya/,幸せが実感できる瀬谷づくり　～地域とともにつくる“住み続けたいまち・瀬谷を目指して～
14,神奈川県,14115,横浜市 栄区,よこはまし さかえく,35.36444444,139.5541667,https://www.city.yokohama.lg.jp/sakae/,みんなが主役の元気なまち・栄区 ～誰もが暮らしやすく、活力あるまちを目指して～
14,神奈川県,14116,横浜市 泉区,よこはまし いずみく,35.41777778,139.4886111,https://www.city.yokohama.lg.jp/izumi/,区民とともに歩む泉区政　元気の出る泉区づくり
14,神奈川県,14117,横浜市 青葉区,よこはまし あおばく,35.55277778,139.5372222,https://www.city.yokohama.lg.jp/aoba/,区民と未来をつなぐ「丘の横浜」のまちづくり
14,神奈川県,14118,横浜市 都筑区,よこはまし つづきく,35.54472222,139.5705556,https://www.city.yokohama.lg.jp/tsuzuki/,区民の活動と産業の活力にあふれるまちを目指して
14,神奈川県,14130,川崎市,かわさきし,35.53083333,139.7030556,https://www.city.kawasaki.jp/,「誰もがいきいきと心豊かに暮らせる持続可能な市民都市かわさき」をめざして
14,神奈川県,14131,川崎市 川崎区,かわさきし かわさきく,35.52972222,139.7038889,https://www.city.kawasaki.jp/kawasaki/,今も昔も交通・産業･文化の拠点
14,神奈川県,14132,川崎市 幸区,かわさきし さいわいく,35.54444444,139.6875,https://www.city.kawasaki.jp/saiwai/,都市と自然の調和したまち
14,神奈川県,14133,川崎市 中原区,かわさきし なかはらく,35.57611111,139.6558333,https://www.city.kawasaki.jp/nakahara/,水・緑・花・人の出合うまち
14,神奈川県,14134,川崎市 高津区,かわさきし たかつく,35.59944444,139.6080556,https://www.city.kawasaki.jp/takatsu/,歴史と進歩が調和したまち　歴史と文化のかおる区
14,神奈川県,14135,川崎市 多摩区,かわさきし たまく,35.61972222,139.5619444,https://www.city.kawasaki.jp/tama/,水と緑と学びのまち
14,神奈川県,14136,川崎市 宮前区,かわさきし みやまえく,35.58916667,139.5786111,https://www.city.kawasaki.jp/miyamae/,都市生活と伝統が出会うまち　人が好き 緑が好き まちが好き
14,神奈川県,14137,川崎市 麻生区,かわさきし あさおく,35.60388889,139.5058333,https://www.city.kawasaki.jp/asao/,豊かな自然と芸術がとけ合うまち
14,神奈川県,14150,相模原市,さがみはらし,35.57138889,139.3733333,https://www.city.sagamihara.kanagawa.jp/,潤水都市（じゅんすいとし）さがみはら　人・自然・産業が共生する活力あるさがみはら
14,神奈川県,14151,相模原市 緑区,さがみはらし みどりく,35.59611111,139.345,https://www.city.sagamihara.kanagawa.jp/midoriku/index.html,
14,神奈川県,14152,相模原市 中央区,さがみはらし ちゅうおうく,35.57138889,139.3733333,https://www.city.sagamihara.kanagawa.jp/chuoku/index.html,
14,神奈川県,14153,相模原市 南区,さがみはらし みなみく,35.53027778,139.4302778,https://www.city.sagamihara.kanagawa.jp/minamiku/index.html,
14,神奈川県,14201,横須賀市,よこすかし,35.28138889,139.6722222,https://www.city.yokosuka.kanagawa.jp/index.html,国際海の手文化都市
14,神奈川県,14203,平塚市,ひらつかし,35.33555556,139.3497222,http://www.city.hiratsuka.kanagawa.jp/,ひと まち 自然　生活快適都市　ひらつか
14,神奈川県,14204,鎌倉市,かまくらし,35.31916667,139.5469444,https://www.city.kamakura.kanagawa.jp/,古都としての風格を保ちながら、生きる喜びと新しい魅力を創造するまち
14,神奈川県,14205,藤沢市,ふじさわし,35.33916667,139.4913889,https://www.city.fujisawa.kanagawa.jp/,一生住み続けたいまち湘南藤沢　湘南の海にひらかれた生涯都市藤沢～歴史と文化と自然のネットワークするまち～
14,神奈川県,14206,小田原市,おだわらし,35.26472222,139.1522222,https://www.city.odawara.kanagawa.jp/,持続可能な市民自治のまち 活力溢れ、未来への安心と希望に満ちた「新しい小田原」
14,神奈川県,14207,茅ヶ崎市,ちがさきし,35.33388889,139.4047222,https://www.city.chigasaki.kanagawa.jp/,自然と人がふれあう心豊かな快適都市　茅ヶ崎
14,神奈川県,14208,逗子市,ずしし,35.29555556,139.5802778,https://www.city.zushi.kanagawa.jp/,青い海とみどり豊かな平和都市
14,神奈川県,14210,三浦市,みうらし,35.14416667,139.6205556,http://www.city.miura.kanagawa.jp/,人・まち・自然の鼓動を感じる都市　みうら
14,神奈川県,14211,秦野市,はだのし,35.37472222,139.2202778,https://www.city.hadano.kanagawa.jp/www/index.html,みどり豊かな暮らしよい都市（まち）
14,神奈川県,14212,厚木市,あつぎし,35.44305556,139.3625,https://www.city.atsugi.kanagawa.jp/,元気あふれる創造性豊かな協働・交流都市　あつぎ
14,神奈川県,14213,大和市,やまとし,35.4875,139.4580556,http://www.city.yamato.lg.jp/,健康創造都市　やまと
14,神奈川県,14214,伊勢原市,いせはらし,35.40277778,139.315,https://www.city.isehara.kanagawa.jp/,愛着をもってふるさとと呼べるまち／いきいきと活力あるまち／美しい自然に囲まれた快適な環境のまち／市民とともに考え実行するまち
14,神奈川県,14215,海老名市,えびなし,35.44638889,139.3908333,https://www.city.ebina.kanagawa.jp/index.html,快適に暮らす 魅力あふれるまち 海老名　「あなたのフィールドへ。海老名市」
14,神奈川県,14216,座間市,ざまし,35.48861111,139.4075,https://www.city.zama.kanagawa.jp/www/toppage/0000000000000/APM03000.html,みなぎる活力とやすらぎが調和するときめきのまち
14,神奈川県,14217,南足柄市,みなみあしがらし,35.32055556,139.1,https://www.city.minamiashigara.kanagawa.jp/,自然のめぐみと活力にみち、いきいき輝くまち　自然あふれる金太郎の里へようこそ
14,神奈川県,14218,綾瀬市,あやせし,35.43722222,139.4269444,https://www.city.ayase.kanagawa.jp/,緑と文化が薫るふれあいのまち　あやせ
14,神奈川県,14301,葉山町,はやままち,35.27194444,139.5863889,https://www.town.hayama.lg.jp/,海とみどりにひろがる交流　文化のまち　葉山
14,神奈川県,14321,寒川町,さむかわまち,35.37305556,139.3841667,https://www.town.samukawa.kanagawa.jp/,優しさと輝きとうるおいのあるまち湘南さむかわ
14,神奈川県,14341,大磯町,おおいそまち,35.30694444,139.3113889,https://www.town.oiso.kanagawa.jp/,紺碧の海に緑の映える住みよい大磯
14,神奈川県,14342,二宮町,にのみやまち,35.29944444,139.2552778,http://www.town.ninomiya.kanagawa.jp/,海と山とやさしさと みんな大好き 湘南にのみや　みどりと優しさと勇気あふれる町 湘南にのみや
14,神奈川県,14361,中井町,なかいまち,35.33083333,139.2188889,https://www.town.nakai.kanagawa.jp/forms/top/top.aspx,水と緑、人がきらめく住んでみたいまち。
14,神奈川県,14362,大井町,おおいまち,35.32666667,139.1563889,https://www.town.oi.kanagawa.jp/,夢 おおい 未来　あしがらの環境と調和した健康なまち
14,神奈川県,14363,松田町,まつだまち,35.34833333,139.1394444,https://town.matsuda.kanagawa.jp/,緑と清流の生き生き・まつだ
14,神奈川県,14364,山北町,やまきたまち,35.36055556,139.0838889,https://www.town.yamakita.kanagawa.jp/,さわやかな風がふきぬける きらめきと交流の町
14,神奈川県,14366,開成町,かいせいまち,35.33638889,139.1233333,https://www.town.kaisei.kanagawa.jp/forms/top/top.aspx,人と自然に優しい連携と交流の都市　～あじさいのまち～
14,神奈川県,14382,箱根町,はこねまち,35.2325,139.1069444,https://www.town.hakone.kanagawa.jp/,人・心・自然、やさしさと出会いを創造する町－箱根
14,神奈川県,14383,真鶴町,まなづるまち,35.15833333,139.1372222,https://www.town.manazuru.kanagawa.jp/,海と緑と太陽と…。ゆったり歩む　ふれあいのまち　まなづる
14,神奈川県,14384,湯河原町,ゆがわらまち,35.14777778,139.1083333,https://www.town.yugawara.kanagawa.jp/,四季彩のまち・さがみの小京都　湯河原
14,神奈川県,14401,愛川町,あいかわまち,35.52888889,139.3216667,https://www.town.aikawa.kanagawa.jp/,ひかり、みどり、ゆとり、ふるさと愛川
14,神奈川県,14402,清川村,きよかわむら,35.48222222,139.2763889,https://www.town.kiyokawa.kanagawa.jp/,水と緑の心の源流郷
15,新潟県,15100,新潟市,にいがたし,37.91611111,139.0363889,https://www.city.niigata.lg.jp/,みなとまち。みらいまち。新潟市
15,新潟県,15101,新潟市 北区,にいがたし きたく,37.91638889,139.2186111,https://www.city.niigata.lg.jp/kita/index.html,豊かな自然の中で人やものが交流する、安全で活力にあふれるまち
15,新潟県,15102,新潟市 東区,にいがたし ひがしく,37.92477958,139.0925915,https://www.city.niigata.lg.jp/higashi/index.html,暮らしと産業の調和を活かした、世界と共生するまち
15,新潟県,15103,新潟市 中央区,にいがたし ちゅうおうく,37.91611111,139.0363889,https://www.city.niigata.lg.jp/chuo/index.html,都心が賑わい、人々が集い交流する水辺のまち
15,新潟県,15104,新潟市 江南区,にいがたし こうなんく,37.86777778,139.0941667,https://www.city.niigata.lg.jp/konan/index.html,緑と調和した、賑わいと安らぎのあるまち
15,新潟県,15105,新潟市 秋葉区,にいがたし あきはく,37.78861111,139.1144444,https://www.city.niigata.lg.jp/akiha/index.html,花と緑に囲まれた、快適でにぎわいのあるまち
15,新潟県,15106,新潟市 南区,にいがたし みなみく,37.76583333,139.0191667,https://www.city.niigata.lg.jp/minami/index.html,大地の恵みと伝統文化、技がはぐくむうるおいのあるまち
15,新潟県,15107,新潟市 西区,にいがたし にしく,37.87388889,138.9716667,https://www.city.niigata.lg.jp/nishi/index.html,都市と農村が共生する、うるおいの居住環境と優れた学術環境に育まれるまち
15,新潟県,15108,新潟市 西蒲区,にいがたし にしかんく,37.76055556,138.8891667,https://www.city.niigata.lg.jp/nishikan/index.html,豊かな自然環境や観光資源に恵まれた、人と人が温かくふれあうまち
15,新潟県,15202,長岡市,ながおかし,37.43638889,138.8388889,https://www.city.nagaoka.niigata.jp/,前より前へ！長岡 ～人が育ち地域が輝く～
15,新潟県,15204,三条市,さんじょうし,37.63638889,138.9616667,https://www.city.sanjo.niigata.jp/,豊かな自然に恵まれた 歴史と文化の息づく 創意にみちた ものづくりのまち
15,新潟県,15205,柏崎市,かしわざきし,37.37194444,138.5588889,https://www.city.kashiwazaki.lg.jp/,好きです 輝く柏崎 ～さらなる未来へ～
15,新潟県,15206,新発田市,しばたし,37.95083333,139.3277778,https://www.city.shibata.lg.jp/,住みよいまち日本一 健康田園文化都市しばた
15,新潟県,15208,小千谷市,おぢやし,37.31444444,138.795,https://www.city.ojiya.niigata.jp/,創造、伝統、自然が織りなす 誇りあるまち おぢや
15,新潟県,15209,加茂市,かもし,37.66638889,139.0402778,http://www.city.kamo.niigata.jp/,日本一の「桐たんす」のまち　日本一の「福祉」のまち
15,新潟県,15210,十日町市,とおかまちし,37.1275,138.7555556,http://www.city.tokamachi.lg.jp/,選ばれて住み継がれるまち。　雪・自然・農が織りなす温もりと躍動のまち
15,新潟県,15211,見附市,みつけし,37.53138889,138.9127778,https://www.city.mitsuke.niigata.jp/,住みたい 行きたい 帰りたい やさしい絆のまち みつけ
15,新潟県,15212,村上市,むらかみし,38.22416667,139.48,https://www.city.murakami.lg.jp/,元気“e(いー))まち”村上市
15,新潟県,15213,燕市,つばめし,37.68611111,138.88,http://www.city.tsubame.niigata.jp/,日本一輝いているまち、つばめ　人と自然と産業が調和し、進化する燕市
15,新潟県,15216,糸魚川市,いといがわし,37.03888889,137.8627778,https://www.city.itoigawa.lg.jp/,翠の交流都市 さわやか すこやか 輝きのまち　世界ジオパークのまち いといがわ
15,新潟県,15217,妙高市,みょうこうし,37.02526874,138.2533423,https://www.city.myoko.niigata.jp/,自然と自然になれる、妙高市。　人と自然にやさしい ふれあい交流都市～生命が輝く 妙高～
15,新潟県,15218,五泉市,ごせんし,37.74472222,139.1825,https://www.city.gosen.lg.jp/,人と自然が織りなす 創造都市 五泉市
15,新潟県,15222,上越市,じょうえつし,37.14805556,138.2361111,https://www.city.joetsu.niigata.jp/,海に山に大地に 学びと出会いが織りなす 創造都市・上越
15,新潟県,15223,阿賀野市,あがのし,37.83444444,139.2258333,https://www.city.agano.niigata.jp/,人・まち・自然が輝く 幸福祉都市 阿賀野
15,新潟県,15224,佐渡市,さどし,38.01805556,138.3683333,https://www.city.sado.niigata.jp/,豊かな自然、薫り高い文化、活気あふれる新しい島づくり
15,新潟県,15225,魚沼市,うおぬまし,37.23027778,138.9616667,https://www.city.uonuma.niigata.jp/,人と四季がかがやく 雪のくに
15,新潟県,15226,南魚沼市,みなみうおぬまし,37.06555556,138.8761111,http://www.city.minamiuonuma.niigata.jp/,自然・人・産業の和で築く 安心のまち
15,新潟県,15227,胎内市,たいないし,38.05972222,139.4102778,http://www.city.tainai.niigata.jp/,自然が活きる、人が輝く、交流のまち
15,新潟県,15307,聖籠町,せいろうまち,37.97444444,139.2744444,http://www.town.seiro.niigata.jp/,緑・ふれあい・夢づくり ～協働による町民自治の実現～
15,新潟県,15342,弥彦村,やひこむら,37.69111111,138.8552778,http://www.vill.yahiko.niigata.jp/,人を育み 地域かがやく 心ふれあう共創のむら 弥彦　越後文化発祥の地
15,新潟県,15361,田上町,たがみまち,37.69888889,139.0580556,http://www.town.tagami.niigata.jp/,ここは、青紫の宝石が咲く町　やさしさと豊かさでキラリと輝くまち 田上
15,新潟県,15385,阿賀町,あがまち,37.67555556,139.4586111,http://www.town.aga.niigata.jp/,豊かな自然・かがやく文化・みんなで築く安心のまち
15,新潟県,15405,出雲崎町,いずもざきまち,37.53083333,138.7094444,https://www.town.izumozaki.niigata.jp/,良寛さまの心の古里 いずもざき
15,新潟県,15461,湯沢町,ゆざわまち,36.93388889,138.8175,https://www.town.yuzawa.lg.jp/,美しい自然につつまれた雪の町
15,新潟県,15482,津南町,つなんまち,37.01416667,138.6525,https://www.town.tsunan.niigata.jp/,～悠久の河岸段丘に夢ひらく～明るい豊かな健康のまち
15,新潟県,15504,刈羽村,かりわむら,37.42222222,138.6225,http://www.vill.kariwa.niigata.jp/www/index.jsp,～笑顔の村 かりわ～
15,新潟県,15581,関川村,せきかわむら,38.08944444,139.565,http://www.vill.sekikawa.niigata.jp/,豊かで住みよい活気ある村
15,新潟県,15586,粟島浦村,あわしまうらむら,38.46833333,139.2547222,http://www.vill.awashimaura.lg.jp/,活力と潤いのある村・・・粟島
16,富山県,16201,富山市,とやまし,36.69583333,137.2136111,https://www.city.toyama.toyama.jp/,人・まち・自然が調和する活力都市とやま
16,富山県,16202,高岡市,たかおかし,36.75416667,137.0261111,https://www.city.takaoka.toyama.jp/,ほっとホット高岡　水・みどり・人　光り輝く躍動のまち　高岡
16,富山県,16204,魚津市,うおづし,36.8275,137.4091667,https://www.city.uozu.toyama.jp/,蜃気楼の見える街　人と自然と文化が共生する元気都市“魚津”
16,富山県,16205,氷見市,ひみし,36.85722222,136.9863889,https://www.city.himi.toyama.jp/,人と自然がなごむ 交流都市 ひみ
16,富山県,16206,滑川市,なめりかわし,36.76444444,137.3411111,https://www.city.namerikawa.toyama.jp/,ときめき　かがやき　ひかりの街　なめりかわ
16,富山県,16207,黒部市,くろべし,36.87361111,137.4491667,https://www.city.kurobe.toyama.jp/,大自然のシンフォニー　文化交流のまち　黒部
16,富山県,16208,砺波市,となみし,36.6475,136.9622222,https://www.city.tonami.toyama.jp/,花香り、水清く、風さわやかなまち　庄川と散居に広がる健康フラワー都市
16,富山県,16209,小矢部市,おやべし,36.67555556,136.8686111,http://www.city.oyabe.toyama.jp/,魅力・安心・充実　しあわせ　おやべ
16,富山県,16210,南砺市,なんとし,36.58777778,136.9194444,https://www.city.nanto.toyama.jp/cms-sypher/www/index.jsp,さきがけて　緑の里から　世界へ
16,富山県,16211,射水市,いみずし,36.71222222,137.0997222,https://www.city.imizu.toyama.jp/,水きららかな ふるさといみず　豊かな自然 あふれる笑顔 みんなで創る きららか射水
16,富山県,16321,舟橋村,ふなはしむら,36.70361111,137.3075,http://www.vill.funahashi.toyama.jp/,自然・人・地域がきらめくむら－舟橋
16,富山県,16322,上市町,かみいちまち,36.69833333,137.3625,https://www.town.kamiichi.toyama.jp/,「確かな地域力」で創る 存在感あふれる上市
16,富山県,16323,立山町,たてやままち,36.66333333,137.3136111,https://www.town.tateyama.toyama.jp/pub/,豊かな自然　水と緑と　人が輝く躍動のまち　立山
16,富山県,16342,入善町,にゅうぜんまち,36.93361111,137.5022222,https://www.town.nyuzen.toyama.jp/,扇状地にひと・くらし輝くまち　入善　～エコ・ネットタウンを目指して～
16,富山県,16343,朝日町,あさひまち,36.94638889,137.56,https://www.town.asahi.toyama.jp/,「うみ彦・やま彦・夢産地」　人と自然、心と心、ふれあうまち“あさひ”
17,石川県,17201,金沢市,かなざわし,36.56083333,136.6566667,https://www4.city.kanazawa.lg.jp/index.html,世界の「交流拠点都市金沢」をめざして　～市民が創る誇りあるまち～
17,石川県,17202,七尾市,ななおし,37.04305556,136.9672222,https://www.city.nanao.lg.jp/,七尾湾と温泉をいかした能登から世界への架け橋　～人が輝く交流体感都市～
17,石川県,17203,小松市,こまつし,36.40861111,136.4455556,https://www.city.komatsu.lg.jp/,ひと・まち・みどりが輝くこまつ　～小松の人と自然が大好きです～
17,石川県,17204,輪島市,わじまし,37.39055556,136.8991667,https://www.city.wajima.ishikawa.jp/,あいの風がはぐくむ　快適・活気・夢のまち
17,石川県,17205,珠洲市,すずし,37.43638889,137.2602778,https://www.city.suzu.lg.jp/,きらり珠洲　人が輝くまちづくり
17,石川県,17206,加賀市,かがし,36.30277778,136.315,https://www.city.kaga.ishikawa.jp/,大聖寺川・動橋川の流域はひとつ 私たちがつくる 水と森のふるさと
17,石川県,17207,羽咋市,はくいし,36.89361111,136.7788889,https://www.city.hakui.lg.jp/,市民とともに創ります。健やかで心豊かに、自然と共生するまち　－はくい
17,石川県,17209,かほく市,かほくし,36.72,136.7066667,http://www.city.kahoku.ishikawa.jp/www/,海とみどりに抱かれた、「やすらぎ」と「うるおい」のあるまち
17,石川県,17210,白山市,はくさんし,36.51444444,136.5655556,https://www.city.hakusan.lg.jp/,豊かな自然と共生する自立と循環の都市（まち）
17,石川県,17211,能美市,のみし,36.4375,136.4961111,https://www.city.nomi.ishikawa.jp/www/index.html,海山川の恵みと人が輝く やすらぎのまちづくり　～歴史・文化・自然・産業の調和した快適居住都市～
17,石川県,17212,野々市市,ののいちし,36.51944444,136.6097222,https://www.city.nonoichi.lg.jp/,にぎわいとやすらぎに満ちた　快適・文化都市
17,石川県,17324,川北町,かわきたまち,36.46861111,136.5422222,http://www.town.kawakita.ishikawa.jp/,彩が「いき」るまち　豊かな未来へ今日をつなぐ 21世紀 TOWN KAWAKITA　小さいからこそ キラリと輝く“ふるさと川北”
17,石川県,17361,津幡町,つばたまち,36.66861111,136.7283333,https://www.town.tsubata.lg.jp/,過去・現在・未来の美しき融合　つばた　～人を活かし、心安らぐまち～
17,石川県,17365,内灘町,うちなだまち,36.65361111,136.645,http://www.town.uchinada.lg.jp/webapps/www/index.jsp,人がいきいき　まちが元気　個性が輝く魅力あるまち　うちなだ
17,石川県,17384,志賀町,しかまち,37.00638889,136.7780556,https://www.town.shika.lg.jp/,夢・未来の創造　笑顔あふれる能登ふれあいの郷　～私たちが主役の新志賀町物語～
17,石川県,17386,宝達志水町,ほうだつしみずちょう,36.86277778,136.7977778,http://www.hodatsushimizu.jp/kurashi/,水と人が奏でるハーモニーのまち
17,石川県,17407,中能登町,なかのとまち,36.98888889,136.9016667,https://www.town.nakanoto.ishikawa.jp/,ふるさと　ふれあい　心を育む　中能登町
17,石川県,17461,穴水町,あなみずまち,37.23111111,136.9125,http://www.town.anamizu.ishikawa.jp/,まいもんの里 穴水　住みよいまちづくり
17,石川県,17463,能登町,のとちょう,37.30666667,137.15,https://www.town.noto.lg.jp/www/total_top.jsp,奥能登にひと・くらしが輝く　ふれあいのまち
18,福井県,18201,福井市,ふくいし,36.06416667,136.2194444,https://www.city.fukui.lg.jp/,自然・活気・誇りにみちた 人が輝く かえりたくなるまち ふくい
18,福井県,18202,敦賀市,つるがし,35.64527778,136.0555556,https://www.city.tsuruga.lg.jp/,世界をつなぐ港まち みんなで拓く交流拠点都市 敦賀
18,福井県,18204,小浜市,おばまし,35.49555556,135.7466667,https://www1.city.obama.fukui.jp/,「夢、無限大」感動おばま ～自然と文化が織りなす 地域力結集プラン～
18,福井県,18205,大野市,おおのし,35.98055556,136.4875,https://www.city.ono.fukui.jp/,ひかりかがやき、たくましく、心ふれあうまち
18,福井県,18206,勝山市,かつやまし,36.06083333,136.5005556,https://www.city.katsuyama.fukui.jp/,小さくてもキラリと光る 誇りと活力に満ちた ふるさと勝山
18,福井県,18207,鯖江市,さばえし,35.95666667,136.1844444,https://www.city.sabae.fukui.jp/,自信と誇りの持てる 自主自立のまち　めがねのまち さばえ
18,福井県,18208,あわら市,あわらし,36.21138889,136.2288889,http://www.city.awara.lg.jp/,ゆうゆうと 人が輝く いやしと創作のまち
18,福井県,18209,越前市,えちぜんし,35.90333333,136.1691667,https://www.city.echizen.lg.jp/,国府の文化と匠の技、日野の山川に育まれ　ひとづくり、ものづくり、まちづくりの活力みなぎる「元気な自立都市　越前」
18,福井県,18210,坂井市,さかいし,36.16694444,136.2316667,https://www.city.fukui-sakai.lg.jp/,輝く未来へ・・・みんなで創る希望の都市（まち）
18,福井県,18322,永平寺町,えいへいじちょう,36.09222222,136.2986111,https://www.town.eiheiji.lg.jp/,うるおい・やすらぎ・人がきらめくまち　えいへいじ
18,福井県,18382,池田町,いけだちょう,35.89027778,136.3441667,https://www.town.ikeda.fukui.jp/,～能楽の里～　風格ある 美しい ほっとランド 池田
18,福井県,18404,南越前町,みなみえちぜんちょう,35.835,136.1944444,https://www.town.minamiechizen.lg.jp/,海と緑と歴史の恵みに抱かれて、出会いから活力の花ひらく町
18,福井県,18423,越前町,えちぜんちょう,35.97416667,136.1297222,https://www.town.echizen.fukui.jp/index.html,人と技 海土里（みどり） 織りなす 快適なまち －越前 E-town brand の創造－
18,福井県,18442,美浜町,みはまちょう,35.60055556,135.9405556,http://www.town.mihama.fukui.jp/www/normal_top.jsp,自然かがやき 人いきいき まちがにぎわう 美し（うま）美浜
18,福井県,18481,高浜町,たかはまちょう,35.49027778,135.5511111,https://www.town.takahama.fukui.jp/,美しい自然を舞台に、一人ひとりが主役になる 暮らしたい、働きたい、訪れたいまち 高浜町
18,福井県,18483,おおい町,おおいちょう,35.48111111,135.6177778,https://www.town.ohi.fukui.jp/index.html,住む人に豊かさを、訪れる人に感動を
18,福井県,18501,若狭町,わかさちょう,35.54888889,135.9083333,https://www.town.fukui-wakasa.lg.jp/,輝きと優しさに出会えるまち
19,山梨県,19201,甲府市,こうふし,35.66222222,138.5683333,https://www.city.kofu.yamanashi.jp/,人がつどい 心がかよう 笑顔あふれるまち・甲府
19,山梨県,19202,富士吉田市,ふじよしだし,35.4875,138.8080556,https://www.city.fujiyoshida.yamanashi.jp/,富士の自然と文化を活かし ともに築く 自立と創造のまち 富士吉田
19,山梨県,19204,都留市,つるし,35.55138889,138.9055556,https://www.city.tsuru.yamanashi.jp/,人いきいき・リニア翔（かけ）る学園の城下町つる
19,山梨県,19205,山梨市,やまなしし,35.69333333,138.6872222,https://www.city.yamanashi.yamanashi.jp/,人・地域・自然が奏（かな）でる　和（なご）みのまち　山梨市
19,山梨県,19206,大月市,おおつきし,35.61055556,138.94,http://www.city.otsuki.yamanashi.jp/,緑とせせらぎと未来のまち　信頼と協働のまちづくり
19,山梨県,19207,韮崎市,にらさきし,35.70888889,138.4463889,https://www.city.nirasaki.lg.jp/,夢と感動のテーマシティ　にらさき
19,山梨県,19208,南アルプス市,みなみあるぷすし,35.60833333,138.465,https://www.city.minami-alps.yamanashi.jp/,人と自然が響き合う新「文化」都市　南アルプス
19,山梨県,19209,北杜市,ほくとし,35.77666667,138.4236111,https://www.city.hokuto.yamanashi.jp/,人と自然と文化が躍動する環境創造都市
19,山梨県,19210,甲斐市,かいし,35.66083333,138.5158333,https://www.city.kai.yamanashi.jp/,緑と活力あふれる生活快適都市
19,山梨県,19211,笛吹市,ふえふきし,35.64722222,138.64,https://www.city.fuefuki.yamanashi.jp/,「桃・ぶどう日本一と温泉の郷」、「甲斐国千年の都」
19,山梨県,19212,上野原市,うえのはらし,35.63027778,139.1086111,https://www.city.uenohara.yamanashi.jp/,夢と希望あふれる快適発信都市
19,山梨県,19213,甲州市,こうしゅうし,35.70416666,138.7294444,https://www.city.koshu.yamanashi.jp/,豊かな自然 歴史と文化に彩られた 果樹園交流のまち 甲州市
19,山梨県,19214,中央市,ちゅうおうし,35.59972222,138.5172222,https://www.city.chuo.yamanashi.jp/,実り豊かな生活文化都市
19,山梨県,19346,市川三郷町,いちかわみさとちょう,35.56527778,138.5022222,http://www.town.ichikawamisato.yamanashi.jp/,やすらぎづくり　日本一の暮らしやすさを目指して
19,山梨県,19364,早川町,はやかわちょう,35.41277778,138.3630556,https://www.town.hayakawa.yamanashi.jp/,自然（かみ）のめぐみ人のふれあい「南アルプス邑」早川町
19,山梨県,19365,身延町,みのぶちょう,35.4675,138.4425,https://www.town.minobu.lg.jp/,安らぎと活力あるひらかれたまち「身延町」
19,山梨県,19366,南部町,なんぶちょう,35.2425,138.4861111,https://www.town.nanbu.yamanashi.jp/,水と緑が溢れるふれあい豊かな町
19,山梨県,19368,富士川町,ふじかわちょう,35.56111111,138.4613889,https://www.town.fujikawa.yamanashi.jp/,暮らしと自然が輝く 交流のまち ～“生涯”快適に暮らせるまちを目指して～
19,山梨県,19384,昭和町,しょうわちょう,35.62805556,138.535,https://www.town.showa.yamanashi.jp/,青空と緑と産業の町
19,山梨県,19422,道志村,どうしむら,35.52805556,139.0336111,http://www.vill.doshi.lg.jp/,緑と清流と歴史の郷　どうし　～日本一の水源の郷をめざして～
19,山梨県,19423,西桂町,にしかつらちょう,35.52416667,138.8469444,https://www.town.nishikatsura.yamanashi.jp/forms/top/top.aspx,水と山と織物の里 にしかつら　山の心、水の心のある町、いきいき西桂
19,山梨県,19424,忍野村,おしのむら,35.46,138.8477778,https://www.vill.oshino.lg.jp/,美しいむら、人にやさしいむら　あふれる自然ときれいな水 そして雄大な景色 忍野村
19,山梨県,19425,山中湖村,やまなかこむら,35.41055556,138.8608333,https://www.vill.yamanakako.lg.jp/,富士山・山中湖と共に生き、人が育ち、人と人がつながり、みんなで築く、活力に満ちた山中湖村
19,山梨県,19429,鳴沢村,なるさわむら,35.48138889,138.7066667,https://www.vill.narusawa.yamanashi.jp/forms/top/top.aspx,心地よく健やかに暮らせるために　みんなでつくる鳴沢村
19,山梨県,19430,富士河口湖町,ふじかわぐちこまち,35.49722222,138.755,https://www.town.fujikawaguchiko.lg.jp/,富士山と湖と高原の町
19,山梨県,19442,小菅村,こすげむら,35.76027778,138.9402778,http://www.vill.kosuge.yamanashi.jp/,元気で温かい源流の郷　こすげ　～源流を誇りに、みんなが協働するむらづくり～
19,山梨県,19443,丹波山村,たばやまむら,35.78972222,138.9222222,https://www.vill.tabayama.yamanashi.jp/,きらり　ふれあいの里　丹波山村
20,長野県,20201,長野市,ながのし,36.64861111,138.1944444,https://www.city.nagano.nagano.jp/,～善光寺平に結ばれる～ 人と地域がきらめくまち“ながの”
20,長野県,20202,松本市,まつもとし,36.23805556,137.9719444,https://www.city.matsumoto.nagano.jp/,健康寿命延伸都市・松本
20,長野県,20203,上田市,うえだし,36.40194444,138.2491667,https://www.city.ueda.nagano.jp/,日本のまん中 人がまん中 生活快適都市 ～水跳ね 緑かがやき 空 こころ 晴れわたるまち～
20,長野県,20204,岡谷市,おかやし,36.06694444,138.0494444,https://www.city.okaya.lg.jp/,みんなが元気に輝く　たくましいまち岡谷
20,長野県,20205,飯田市,いいだし,35.51472222,137.8219444,https://www.city.iida.lg.jp/,文化経済自立都市　美しい自然に恵まれ、長い歴史と尊い伝統文化につつまれた人情豊かなまち
20,長野県,20206,諏訪市,すわし,36.03916667,138.1141667,https://www.city.suwa.lg.jp/www/index.jsp,ゆたかな自然と社会が調和する、心豊かな、活力のある環境文化都市
20,長野県,20207,須坂市,すざかし,36.65111111,138.3069444,https://www.city.suzaka.nagano.jp/,いきいきすざか　やさしさと活力あふれる美しい共生・文化のまち
20,長野県,20208,小諸市,こもろし,36.32694444,138.4261111,https://www.city.komoro.lg.jp/,みんなで育む　笑顔と自然が響きあうまち　小諸
20,長野県,20209,伊那市,いなし,35.8275,137.9538889,https://www.inacity.jp/,二つのアルプスに抱かれた自然共生都市　～人と歴史と文化を育む活力と交流の美しいまち～
20,長野県,20210,駒ヶ根市,こまがねし,35.72888889,137.9338889,https://www.city.komagane.nagano.jp/,アルプスがふたつ映えるまち　人と自然にやさしい はつらつとした文化公園都市
20,長野県,20211,中野市,なかのし,36.74194444,138.3694444,https://www.city.nakano.nagano.jp/,緑豊かなふるさと　文化が香る元気なまち
20,長野県,20212,大町市,おおまちし,36.50305556,137.8508333,https://www.city.omachi.nagano.jp/,豊かな自然と文化の風　きらり輝くおおまち
20,長野県,20213,飯山市,いいやまし,36.85166667,138.3655556,https://www.city.iiyama.nagano.jp/,雪と寺の町　飯山
20,長野県,20214,茅野市,ちのし,35.99555556,138.1588889,https://www.city.chino.lg.jp/,～途切れることのない、人と歴史と自然の絆～　人も自然も元気で豊か　躍動する高原都市
20,長野県,20215,塩尻市,しおじりし,36.115,137.9536111,https://www.city.shiojiri.lg.jp/,いきいき満彩 信州しおじり　ともに築く 自立と創造の田園都市
20,長野県,20217,佐久市,さくし,36.24888889,138.4769444,https://www.city.saku.nagano.jp/,叡智と情熱が結ぶ、21世紀の新たな文化発祥都市
20,長野県,20218,千曲市,ちくまし,36.53388889,138.12,https://www.city.chikuma.lg.jp/,千曲の魅力と 多彩な力が 未来を拓（ひら）く 躍動の都市（まち）
20,長野県,20219,東御市,とうみし,36.35944444,138.3305556,https://www.city.tomi.nagano.jp/,さわやかな風と出会いの元気発信都市　とうみし
20,長野県,20220,安曇野市,あづみのし,36.30277778,137.8997222,https://www.city.azumino.nagano.jp/,自然を愛し、水と緑の薫るまち　安曇野
